[{"mkz":"25470023","name":"Ottenhagen OP","lat":53.4168,"lon":13.64362,"msid":8730},{"mkz":"25470024","name":"Ottenhagen UP","lat":53.41679,"lon":13.64365,"msid":8726},{"mkz":"25480025","name":"Neumannshof","lat":53.45202,"lon":13.82654,"msid":9112},{"mkz":"25480026","name":"Amalienhof","lat":53.45708,"lon":13.67741,"msid":9113},{"mkz":"25481088","name":"Milow OP","lat":53.47585,"lon":13.82148,"msid":8875},{"mkz":"25490020","name":"HyPr 106/84 OP,Bandelow OP","lat":53.4057,"lon":13.84887,"msid":8868},{"mkz":"25496025","name":"Schönfeld, HyPaoPw 115/81 UP","lat":53.42631,"lon":13.97746,"msid":8871},{"mkz":"25500006","name":"Grimme","lat":53.4225,"lon":14.14472,"msid":8449},{"mkz":"25501075","name":"Neuenfeld OP","lat":53.41774,"lon":14.03968,"msid":8878},{"mkz":"25501076","name":"Neuenfeld UP","lat":53.41772,"lon":14.03977,"msid":10263},{"mkz":"25510027","name":"Menkin","lat":53.41404,"lon":14.2117,"msid":8854},{"mkz":"26381003","name":"Jännersdorf, am Friedhof","lat":53.3363,"lon":12.06052,"msid":15312},{"mkz":"26390030","name":"Krempendorf OP","lat":53.33262,"lon":12.17785,"msid":14910},{"mkz":"26390032","name":"Krempendorf UP","lat":53.33262,"lon":12.17785,"msid":14911},{"mkz":"26390040","name":"Meyenburg","lat":53.31452,"lon":12.24678,"msid":15168},{"mkz":"26471092","name":"Buchenhain","lat":53.31002,"lon":13.54863,"msid":10190},{"mkz":"26471094","name":"Fürstenwerder","lat":53.38198,"lon":13.58885,"msid":10260},{"mkz":"26471095","name":"Parmen OP","lat":53.34948,"lon":13.5879,"msid":10261},{"mkz":"26471096","name":"Parmen UP","lat":53.34947,"lon":13.58793,"msid":10262},{"mkz":"26471097","name":"Arendsee OP","lat":53.33259,"lon":13.62749,"msid":10264},{"mkz":"26471098","name":"Arendsee MP","lat":53.33261,"lon":13.62752,"msid":10265},{"mkz":"26471099","name":"Arendsee UP","lat":53.33258,"lon":13.62747,"msid":10188},{"mkz":"26480022","name":"Schönermark-Wilhelmshof","lat":53.33185,"lon":13.72035,"msid":8990},{"mkz":"26481051","name":"Holzendorf-Nord UP, LUGV 2/2014, eh. HyDdw 6/74 UP","lat":53.39607,"lon":13.76342,"msid":15526},{"mkz":"26481052","name":"HyDdw 4/74, Holzendorf","lat":53.38565,"lon":13.78605,"msid":10187},{"mkz":"26481057","name":"Gollmitz Nordwest OP","lat":53.30642,"lon":13.70918,"msid":15527},{"mkz":"26486009","name":"Bollmannshof OP","lat":53.35347,"lon":13.7318,"msid":10269},{"mkz":"26486010","name":"Bollmannshof UP","lat":53.35347,"lon":13.7318,"msid":10270},{"mkz":"26486011","name":"Schapow, ARTESER","lat":53.34857,"lon":13.70784,"msid":15488},{"mkz":"26486016","name":"Fischershof","lat":53.36129,"lon":13.73108,"msid":9815},{"mkz":"26490028","name":"Prenzlau, UNI-Center","lat":53.3174,"lon":13.86686,"msid":9114},{"mkz":"26490030","name":"Prenzlau, Kuhdamm OP","lat":53.32226,"lon":13.84201,"msid":8723},{"mkz":"26490031","name":"Prenzlau, Kuhdamm UP","lat":53.32224,"lon":13.84201,"msid":8724},{"mkz":"26491061","name":"Schönwerder OP neu","lat":53.38178,"lon":13.84035,"msid":15473},{"mkz":"26491067","name":"Schenkenberg","lat":53.36676,"lon":13.94638,"msid":15895},{"mkz":"26491068","name":"Baumgarten","lat":53.34022,"lon":13.9502,"msid":15592},{"mkz":"26500002","name":"Frauenhagen","lat":53.38089,"lon":14.14556,"msid":9753},{"mkz":"26501072","name":"Kleptow OP","lat":53.37023,"lon":14.00664,"msid":15896},{"mkz":"26501073","name":"Kleptow UP","lat":53.37021,"lon":14.00661,"msid":15897},{"mkz":"26501081","name":"Schwaneberg West","lat":53.32526,"lon":14.08964,"msid":15898},{"mkz":"26510037","name":"Bagemühl","lat":53.35654,"lon":14.19553,"msid":15899},{"mkz":"27370001","name":"Berge","lat":53.24101,"lon":11.87479,"msid":15219},{"mkz":"27381010","name":"Lockstädt OP","lat":53.21229,"lon":12.02279,"msid":14814},{"mkz":"27381014","name":"Preddöhl UP","lat":53.22239,"lon":12.14786,"msid":15309},{"mkz":"27390101","name":"Halenbeck, Waldrand","lat":53.25953,"lon":12.31899,"msid":15190},{"mkz":"27400050","name":"Freyenstein, Koppel","lat":53.29114,"lon":12.39046,"msid":15261},{"mkz":"27400058","name":"Zaatzke","lat":53.20066,"lon":12.40297,"msid":14085},{"mkz":"27400059","name":"Wulfersdorf, an d. Redlitz","lat":53.25654,"lon":12.38879,"msid":14086},{"mkz":"27400064","name":"Neu Cölln bei Freyenstein OP","lat":53.26962,"lon":12.37515,"msid":14095},{"mkz":"27400070","name":"Wernikow OP","lat":53.21274,"lon":12.43965,"msid":15188},{"mkz":"27400071","name":"Wernikow UP","lat":53.21274,"lon":12.43965,"msid":14933},{"mkz":"27400110","name":"Wulfersdorf, Koppel Wolter","lat":53.24866,"lon":12.43292,"msid":15189},{"mkz":"27400243","name":"Neu Cölln bei Freyenstein MP","lat":53.26962,"lon":12.37515,"msid":14073},{"mkz":"27400244","name":"Neu Cölln bei Freyenstein UP","lat":53.26962,"lon":12.37515,"msid":14037},{"mkz":"27410202","name":"Alt Daber, 1,3 km nördl.","lat":53.21872,"lon":12.50776,"msid":14040},{"mkz":"27410232","name":"Alt Daber, Weg n. Buchholz UP","lat":53.20895,"lon":12.51072,"msid":15120},{"mkz":"27410250","name":"Dranse, 1 km nordöstl.","lat":53.20891,"lon":12.63796,"msid":15121},{"mkz":"27440150","name":"Fürstenberg, Umspannwerk","lat":53.20914,"lon":13.13001,"msid":15434},{"mkz":"27442189","name":"Thymensee OP","lat":53.22424,"lon":13.12417,"msid":15291},{"mkz":"27442190","name":"Thymensee UP","lat":53.22424,"lon":13.12417,"msid":14122},{"mkz":"27450129","name":"Altthymen, Bartelshof","lat":53.22994,"lon":13.16537,"msid":15358},{"mkz":"27452330","name":"Lychen, Markgrafenallee","lat":53.21825,"lon":13.31808,"msid":14766},{"mkz":"27452340","name":"Retzow/Rutenberg","lat":53.25352,"lon":13.25733,"msid":15125},{"mkz":"27460295","name":"Küstrinchen, Schreibermühle","lat":53.23299,"lon":13.38164,"msid":14818},{"mkz":"27460402","name":"Thomsdorfer Heckenhaus OP","lat":53.26321,"lon":13.44287,"msid":14123},{"mkz":"27460403","name":"Thomsdorfer Heckenhaus UP","lat":53.26321,"lon":13.44287,"msid":14124},{"mkz":"27460405","name":"Stabeshorst, Beenzer Ausbau","lat":53.24833,"lon":13.3502,"msid":15126},{"mkz":"27461019","name":"Thomsdorf","lat":53.28137,"lon":13.46147,"msid":9755},{"mkz":"27462311","name":"Küstrinchen","lat":53.21409,"lon":13.39961,"msid":15292},{"mkz":"27470001","name":"Sternthal","lat":53.22194,"lon":13.62167,"msid":15127},{"mkz":"27471020","name":"Boitzenburg","lat":53.26739,"lon":13.60438,"msid":9701},{"mkz":"27481012","name":"Klein-Sperrenwalde OP","lat":53.28644,"lon":13.73777,"msid":15513},{"mkz":"27481013","name":"Klein-Sperrenwalde MP","lat":53.28644,"lon":13.73777,"msid":15514},{"mkz":"27481014","name":"Klein-Sperrenwalde UP","lat":53.28646,"lon":13.73785,"msid":15515},{"mkz":"27485004","name":"Gollmitz UP","lat":53.29241,"lon":13.68334,"msid":15474},{"mkz":"27485009","name":"Horst","lat":53.29751,"lon":13.75386,"msid":10135},{"mkz":"27485031","name":"Zollchow OP","lat":53.26464,"lon":13.81969,"msid":15594},{"mkz":"27485032","name":"Zollchow UP","lat":53.2646,"lon":13.81962,"msid":15900},{"mkz":"27491023","name":"Berghausen MP","lat":53.23598,"lon":13.89609,"msid":9219},{"mkz":"27501027","name":"Wartin OP","lat":53.24661,"lon":14.12013,"msid":15299},{"mkz":"27501028","name":"Wartin UP","lat":53.24662,"lon":14.12005,"msid":15300},{"mkz":"27501047","name":"Lützlow Nord OP","lat":53.25504,"lon":14.02823,"msid":9277},{"mkz":"27501048","name":"Lützlow Nord UP","lat":53.25501,"lon":14.02825,"msid":9830},{"mkz":"27505013","name":"Lützlow Süd MP","lat":53.22814,"lon":14.04033,"msid":9320},{"mkz":"27505014","name":"Lützlow Süd UP","lat":53.2281,"lon":14.04036,"msid":10123},{"mkz":"27505015","name":"Lützlow West OP","lat":53.23552,"lon":14.01316,"msid":10124},{"mkz":"27505016","name":"Lützlow West UP","lat":53.2355,"lon":14.01317,"msid":10125},{"mkz":"27511003","name":"Hohenselchow OP","lat":53.20831,"lon":14.28261,"msid":10386},{"mkz":"27511004","name":"Hohenselchow UP","lat":53.20828,"lon":14.28258,"msid":10372},{"mkz":"27511009","name":"Casekow, Wiese","lat":53.21519,"lon":14.20853,"msid":10373},{"mkz":"27511011","name":"Casekow, Getreidewirtschaft","lat":53.2047,"lon":14.19655,"msid":9350},{"mkz":"27511025","name":"Wartin OP","lat":53.23159,"lon":14.17609,"msid":9351},{"mkz":"27511026","name":"Wartin UP","lat":53.23162,"lon":14.17603,"msid":10308},{"mkz":"27511090","name":"Neuschönfeld OP","lat":53.2411,"lon":14.30397,"msid":10371},{"mkz":"27511091","name":"Neuschönfeld UP","lat":53.24111,"lon":14.304,"msid":10284},{"mkz":"27519033","name":"Tantow West","lat":53.26353,"lon":14.3142,"msid":10377},{"mkz":"27521005","name":"Gartz OP","lat":53.2107,"lon":14.33442,"msid":10336},{"mkz":"27521006","name":"Gartz UP","lat":53.21074,"lon":14.33441,"msid":10337},{"mkz":"27521086","name":"Mescherin","lat":53.25251,"lon":14.43792,"msid":8989},{"mkz":"28330005","name":"Baarz, am Achterdeich","lat":53.11223,"lon":11.28599,"msid":14980},{"mkz":"28340010","name":"Moor OP","lat":53.12298,"lon":11.44189,"msid":14114},{"mkz":"28340011","name":"Moor UP","lat":53.12298,"lon":11.44189,"msid":14115},{"mkz":"28350010","name":"Ferbitz","lat":53.10245,"lon":11.57422,"msid":14763},{"mkz":"28350020","name":"Boberow OP","lat":53.12114,"lon":11.61381,"msid":14764},{"mkz":"28350021","name":"Boberow UP","lat":53.12114,"lon":11.61381,"msid":14938},{"mkz":"28350023","name":"Sargleben OP","lat":53.19285,"lon":11.63483,"msid":14939},{"mkz":"28350024","name":"Sargleben MP1","lat":53.19285,"lon":11.63483,"msid":14940},{"mkz":"28350025","name":"Sargleben MP2","lat":53.19285,"lon":11.63483,"msid":14941},{"mkz":"28350026","name":"Sargleben UP","lat":53.19285,"lon":11.63483,"msid":14942},{"mkz":"28360020","name":"Stavenow","lat":53.14335,"lon":11.71131,"msid":14976},{"mkz":"28360024","name":"Postlin OP","lat":53.18665,"lon":11.76217,"msid":14823},{"mkz":"28360025","name":"Postlin MP1","lat":53.18665,"lon":11.76217,"msid":14824},{"mkz":"28360027","name":"Postlin UP","lat":53.18665,"lon":11.76217,"msid":14934},{"mkz":"28360040","name":"Karstädt OP","lat":53.16411,"lon":11.72827,"msid":14935},{"mkz":"28360042","name":"Karstädt UP","lat":53.16411,"lon":11.72827,"msid":14937},{"mkz":"28370011","name":"Neu Rohlsdorf","lat":53.10471,"lon":11.97427,"msid":15259},{"mkz":"28370013","name":"Groß Linde OP","lat":53.11304,"lon":11.90024,"msid":15260},{"mkz":"28370014","name":"Groß Linde UP","lat":53.11304,"lon":11.90024,"msid":15164},{"mkz":"28370015","name":"Groß Buchholz OP","lat":53.11487,"lon":11.85944,"msid":15165},{"mkz":"28370016","name":"Groß Buchholz MP1","lat":53.11487,"lon":11.85944,"msid":15179},{"mkz":"28370020","name":"Gramzow","lat":53.1298,"lon":11.94358,"msid":15180},{"mkz":"28390112","name":"Buchholz, B 103","lat":53.12705,"lon":12.17966,"msid":15191},{"mkz":"28390113","name":"Beveringen OP","lat":53.14975,"lon":12.23342,"msid":14130},{"mkz":"28390114","name":"Beveringen MP","lat":53.14975,"lon":12.23342,"msid":14107},{"mkz":"28390115","name":"Beveringen UP","lat":53.14975,"lon":12.23342,"msid":14131},{"mkz":"28390120","name":"Pritzwalk, nördl. OP","lat":53.17139,"lon":12.1758,"msid":14132},{"mkz":"28390121","name":"Pritzwalk, nördl. MP","lat":53.17136,"lon":12.17582,"msid":14133},{"mkz":"28390123","name":"Pritzwalk Nord OP","lat":53.17175,"lon":12.17536,"msid":17221},{"mkz":"28390125","name":"Pritzwalk, Perleberger Str.","lat":53.14941,"lon":12.17058,"msid":15174},{"mkz":"28400205","name":"Glienicke","lat":53.17692,"lon":12.41768,"msid":15002},{"mkz":"28400206","name":"Maulbeerwalde, südl. Autob. OP","lat":53.16348,"lon":12.37475,"msid":15399},{"mkz":"28400211","name":"Scharfenberg, Ortseingang","lat":53.11923,"lon":12.48702,"msid":15000},{"mkz":"28400223","name":"Maulbeerwalde, Wasserwerk OP","lat":53.1676,"lon":12.35011,"msid":15319},{"mkz":"28400252","name":"Maulbeerwalde, Wasserwerk MP","lat":53.1676,"lon":12.35011,"msid":15355},{"mkz":"28400253","name":"Maulbeerwalde, Wasserwerk UP","lat":53.1676,"lon":12.35011,"msid":15356},{"mkz":"28400254","name":"Maulbeerwalde, südl. Autob. UP","lat":53.16348,"lon":12.37475,"msid":15357},{"mkz":"28401031","name":"Liebenthal","lat":53.14418,"lon":12.40062,"msid":15116},{"mkz":"28401170","name":"Natteheide OP","lat":53.09865,"lon":12.42743,"msid":15397},{"mkz":"28401180","name":"Wittstock, Papenbrucher Weg OP","lat":53.15491,"lon":12.47508,"msid":15004},{"mkz":"28401181","name":"Wittstock, Papenbrucher Weg MP","lat":53.15491,"lon":12.47508,"msid":15005},{"mkz":"28401182","name":"Wittstock, Papenbrucher Weg UP","lat":53.15491,"lon":12.47508,"msid":15006},{"mkz":"28401184","name":"Wittstock, Röbeler Straße 26 OP","lat":53.16736,"lon":12.49459,"msid":15378},{"mkz":"28401185","name":"Wittstock, Röbeler Straße 26 UP","lat":53.16736,"lon":12.49459,"msid":15379},{"mkz":"28410213","name":"Groß-Haßlow, Kreuzung","lat":53.1726,"lon":12.57227,"msid":14806},{"mkz":"28410218","name":"Zootzen, 2,7 km östl.","lat":53.14193,"lon":12.6309,"msid":14807},{"mkz":"28410220","name":"Gadow","lat":53.11403,"lon":12.60435,"msid":14808},{"mkz":"28410225","name":"Babitzer Holz MP1","lat":53.17048,"lon":12.57984,"msid":14809},{"mkz":"28410228","name":"Babitzer Holz OP","lat":53.17048,"lon":12.57984,"msid":14967},{"mkz":"28410230","name":"Babitzer Holz UP","lat":53.17048,"lon":12.57984,"msid":14804},{"mkz":"28410240","name":"Schweinrich","lat":53.17386,"lon":12.63406,"msid":15172},{"mkz":"28428204","name":"Linow, Wald","lat":53.11028,"lon":12.8296,"msid":14944},{"mkz":"28430012","name":"Revier Stechlin, Jagen 225","lat":53.16391,"lon":12.98678,"msid":15335},{"mkz":"28430013","name":"Revier Stechlin, Jagen 207","lat":53.15731,"lon":12.99588,"msid":15336},{"mkz":"28430018","name":"Zeutenwiesen, nördl. Zeutensee","lat":53.11285,"lon":12.98987,"msid":15337},{"mkz":"28430020","name":"Revier Dollgow, Jagen 45","lat":53.11473,"lon":12.9924,"msid":15351},{"mkz":"28430021","name":"Zeutenwiesen, südl. Nehmitzsee","lat":53.1121,"lon":12.99165,"msid":15344},{"mkz":"28438014","name":"Luhme, nordwestl. Ortslage","lat":53.19308,"lon":12.83403,"msid":13985},{"mkz":"28438060","name":"Zechlinerhütte, Kampersee","lat":53.15505,"lon":12.89591,"msid":13967},{"mkz":"28438063","name":"Luhme, Ortsausgang","lat":53.18484,"lon":12.84738,"msid":13968},{"mkz":"28438064","name":"Zechlinerhütte,1300 m westl.","lat":53.15168,"lon":12.84659,"msid":14185},{"mkz":"28438066","name":"Beerenbusch, Meerkatzberg","lat":53.1521,"lon":12.93642,"msid":13922},{"mkz":"28438100","name":"Rheinsberg, Str. nach Menz","lat":53.10314,"lon":12.92752,"msid":13935},{"mkz":"28438101","name":"Rheinsberg, Feldstraße","lat":53.10268,"lon":12.89511,"msid":13936},{"mkz":"28438109","name":"Feldgrieben","lat":53.12881,"lon":12.94764,"msid":13920},{"mkz":"28438120","name":"Beerenbusch, Menzer Heide OP","lat":53.13273,"lon":12.96483,"msid":14528},{"mkz":"28438121","name":"Beerenbusch, Menzer Heide MP","lat":53.13274,"lon":12.96477,"msid":14506},{"mkz":"28438122","name":"Beerenbusch, Menzer Heide UP","lat":53.13274,"lon":12.96471,"msid":14507},{"mkz":"28440001","name":"Revier Neuglobsow, Station","lat":53.14171,"lon":13.03371,"msid":14508},{"mkz":"28440003","name":"Revier Neuglobsow, Jagen91","lat":53.13565,"lon":13.0441,"msid":14472},{"mkz":"28440004","name":"Revier Dagow, Jagen 144/143","lat":53.16489,"lon":13.04602,"msid":15345},{"mkz":"28440005","name":"Revier Steinförde, Jagen 56","lat":53.161,"lon":13.05773,"msid":14473},{"mkz":"28440006","name":"Revier Steinförde, Jagen 48","lat":53.15907,"lon":13.07263,"msid":14474},{"mkz":"28440007","name":"Revier Dagow, Jagen 121","lat":53.15875,"lon":13.09819,"msid":14475},{"mkz":"28440008","name":"Revier Schönhorn, Jagen 83","lat":53.17376,"lon":13.03785,"msid":14476},{"mkz":"28440010","name":"Revier Stechlin, Jagen 221/213","lat":53.16435,"lon":13.01445,"msid":14477},{"mkz":"28440015","name":"Revier Stechlin, Jagen 98","lat":53.13471,"lon":13.01262,"msid":14385},{"mkz":"28440016","name":"Revier Menz, Jagen 272","lat":53.1268,"lon":13.02327,"msid":14386},{"mkz":"28440025","name":"Revier Dagow, Jagen 142","lat":53.15646,"lon":13.04356,"msid":14480},{"mkz":"28440026","name":"Revier Schönhorn, Jagen 237","lat":53.17373,"lon":13.0199,"msid":14458},{"mkz":"28440027","name":"Revier Schönhorn, Jagen 212","lat":53.16817,"lon":13.01976,"msid":14459},{"mkz":"28440028","name":"Revier Steinförde, Jagen 57","lat":53.16608,"lon":13.05254,"msid":14680},{"mkz":"28440029","name":"Revier Steinförde, Westufer Peetschsee","lat":53.16718,"lon":13.06064,"msid":14681},{"mkz":"28440032","name":"Revier Neuglobsow, Jagen 134","lat":53.14765,"lon":13.0441,"msid":14737},{"mkz":"28440035","name":"Revier Neuglobsow, Jagen 112","lat":53.14253,"lon":13.09313,"msid":14740},{"mkz":"28440037","name":"Revier Menz, Jagen 264","lat":53.13111,"lon":13.06108,"msid":14672},{"mkz":"28440038","name":"Revier Neuglobsow, Jagen 75","lat":53.13651,"lon":13.04353,"msid":14673},{"mkz":"28440040","name":"Revier Neuglobsow, Jagen 94","lat":53.14171,"lon":13.03371,"msid":14675},{"mkz":"28440041","name":"Revier Menz, Jagen 252 UP","lat":53.12595,"lon":13.07822,"msid":14676},{"mkz":"28440042","name":"Revier Menz, Jagen 252 OP","lat":53.12595,"lon":13.07822,"msid":14677},{"mkz":"28440090","name":"Revier Dagow, Jagen 209 UP","lat":53.17133,"lon":13.03778,"msid":14586},{"mkz":"28441301","name":"Fürstenberg, Bürgersee","lat":53.17015,"lon":13.12809,"msid":14590},{"mkz":"28441303","name":"Groß Menow","lat":53.19365,"lon":13.04401,"msid":14736},{"mkz":"28441310","name":"Fürstenberg, Schützenstraße UF","lat":53.18576,"lon":13.13986,"msid":14125},{"mkz":"28441315","name":"Ravensbrück, 45 m nördl. Himmelpforter Landstraße","lat":53.19371,"lon":13.15991,"msid":15128},{"mkz":"28443405","name":"Burow","lat":53.11214,"lon":13.10385,"msid":15294},{"mkz":"28443415","name":"Menz, Friedensplatz","lat":53.10444,"lon":13.05103,"msid":15129},{"mkz":"28452403","name":"Zootzen","lat":53.15043,"lon":13.20507,"msid":14783},{"mkz":"28452408","name":"Himmelpfort, Zur Hasenheide","lat":53.18037,"lon":13.22615,"msid":15130},{"mkz":"28452410","name":"Tangersdorf","lat":53.16306,"lon":13.32311,"msid":15258},{"mkz":"28452420","name":"Dannenwalde, Buswendeschleife Gramzow","lat":53.11361,"lon":13.17203,"msid":15518},{"mkz":"28453495","name":"Bredereiche","lat":53.12116,"lon":13.24325,"msid":14765},{"mkz":"28463201","name":"Netzow","lat":53.16028,"lon":13.47933,"msid":15324},{"mkz":"28463205","name":"Bandelowshof","lat":53.1406,"lon":13.47668,"msid":14812},{"mkz":"28463240","name":"Alt Placht, westlicher Waldweg","lat":53.16538,"lon":13.38208,"msid":13635},{"mkz":"28463245","name":"Gandenitz","lat":53.17458,"lon":13.44218,"msid":14950},{"mkz":"28470002","name":"Petersdorf","lat":53.09877,"lon":13.58505,"msid":13388},{"mkz":"28473104","name":"Kreuzkrug","lat":53.14807,"lon":13.60591,"msid":15347},{"mkz":"28473110","name":"Petznick","lat":53.16014,"lon":13.62758,"msid":14098},{"mkz":"28473124","name":"Luisenfelde OP","lat":53.19739,"lon":13.526,"msid":15052},{"mkz":"28473126","name":"Luisenfelde UP","lat":53.19739,"lon":13.526,"msid":14948},{"mkz":"28473130","name":"Mittenwalde, B109","lat":53.18505,"lon":13.66345,"msid":14813},{"mkz":"28473135","name":"Templin - Altstadt","lat":53.12133,"lon":13.4994,"msid":15160},{"mkz":"28473140","name":"Templin - Neustadt OP","lat":53.11453,"lon":13.50875,"msid":15161},{"mkz":"28473141","name":"Templin - Neustadt UP","lat":53.11453,"lon":13.50875,"msid":15122},{"mkz":"28480010","name":"Groß Fredenwalde OP","lat":53.10168,"lon":13.69292,"msid":15069},{"mkz":"28480011","name":"Groß Fredenwalde UP","lat":53.10168,"lon":13.69292,"msid":15070},{"mkz":"28480021","name":"Hessenhagen","lat":53.10562,"lon":13.80398,"msid":8725},{"mkz":"28481093","name":"Gerswalde","lat":53.17299,"lon":13.76087,"msid":10092},{"mkz":"28491008","name":"Polßen","lat":53.16293,"lon":13.98273,"msid":10094},{"mkz":"28491016","name":"Schmiedeberg","lat":53.14986,"lon":13.96572,"msid":10037},{"mkz":"28495022","name":"Dreiecksee","lat":53.19706,"lon":13.9364,"msid":10042},{"mkz":"28500636","name":"Biesenbrow, Fbr","lat":53.1179,"lon":14.01511,"msid":9604},{"mkz":"28500652","name":"Schönow","lat":53.18105,"lon":14.1399,"msid":10109},{"mkz":"28501101","name":"Passow, Fbr.","lat":53.14263,"lon":14.11434,"msid":10111},{"mkz":"28501105","name":"Wendemark","lat":53.1627,"lon":14.10143,"msid":10113},{"mkz":"28501107","name":"Grünow bei Passow","lat":53.12493,"lon":14.06759,"msid":10115},{"mkz":"28501108","name":"Wendemark","lat":53.16659,"lon":14.09551,"msid":10116},{"mkz":"28501111","name":"Briest bei Passow","lat":53.15517,"lon":14.05733,"msid":15298},{"mkz":"28510981","name":"Hohenselchow-Heinrichshof","lat":53.19305,"lon":14.32206,"msid":9346},{"mkz":"28510982","name":"Hohenfelde","lat":53.17367,"lon":14.29417,"msid":10379},{"mkz":"28510985","name":"Frostenwalde","lat":53.14839,"lon":14.28353,"msid":9834},{"mkz":"28511201","name":"Blumenhagen, Scheune","lat":53.11685,"lon":14.29365,"msid":9836},{"mkz":"28511204","name":"Vierraden/Wildbahn","lat":53.11986,"lon":14.30742,"msid":10305},{"mkz":"28511207","name":"Hohenfelde, Jagen 2-9","lat":53.12267,"lon":14.3263,"msid":10381},{"mkz":"28511210","name":"Hohenfelde, Jagen 11-18","lat":53.12898,"lon":14.32901,"msid":10384},{"mkz":"28511229","name":"Stendell Nord","lat":53.1477,"lon":14.16547,"msid":10385},{"mkz":"28511230","name":"Vierraden","lat":53.10327,"lon":14.31767,"msid":10387},{"mkz":"28511231","name":"Stendell (Rangierbhf. PCK)","lat":53.12842,"lon":14.18642,"msid":10311},{"mkz":"28511233","name":"Stendell Ausbau","lat":53.1552,"lon":14.17498,"msid":10276},{"mkz":"28519035","name":"Vierraden, jüdischer Friedhof","lat":53.09874,"lon":14.30766,"msid":10285},{"mkz":"28521228","name":"Gartz UP, Schulzensteg unten","lat":53.15882,"lon":14.33618,"msid":10089},{"mkz":"28521235","name":"Friedrichsthal OP","lat":53.16913,"lon":14.34234,"msid":9775},{"mkz":"29341721","name":"Lenzen, Weg zur Fähre OP","lat":53.08401,"lon":11.46356,"msid":14815},{"mkz":"29341722","name":"Lenzen, Weg zur Fähre UP","lat":53.08401,"lon":11.46356,"msid":15064},{"mkz":"29350014","name":"Cumlosen, Deich","lat":53.02131,"lon":11.64308,"msid":14025},{"mkz":"29350020","name":"Cumlosen, nordwestl. OP","lat":53.03901,"lon":11.65392,"msid":14027},{"mkz":"29350021","name":"Cumlosen, nordwestl. MP","lat":53.03901,"lon":11.65392,"msid":14028},{"mkz":"29350024","name":"Lenzersilge OP","lat":53.08813,"lon":11.66242,"msid":14966},{"mkz":"29350025","name":"Lenzersilge MP1","lat":53.08813,"lon":11.66242,"msid":13950},{"mkz":"29350026","name":"Lenzersilge MP2","lat":53.08813,"lon":11.66242,"msid":13951},{"mkz":"29360006","name":"Wittenberge, Rathaus","lat":52.9986,"lon":11.74847,"msid":14018},{"mkz":"29360017","name":"Wittenberge Nord","lat":53.0309,"lon":11.75497,"msid":14120},{"mkz":"29370007","name":"Perleberg, Rathaus UF","lat":53.07686,"lon":11.86222,"msid":14965},{"mkz":"29370009","name":"Rambow, Acker","lat":53.03801,"lon":11.99377,"msid":15436},{"mkz":"29370010","name":"Uenze, nördl. d. Ortslage","lat":53.03928,"lon":11.91997,"msid":15437},{"mkz":"29370011","name":"Düpow, an der Kirche","lat":53.0615,"lon":11.89697,"msid":15438},{"mkz":"29370020","name":"Perleberg, Wittenberger Straße","lat":53.06946,"lon":11.84823,"msid":15439},{"mkz":"29370030","name":"Spiegelhagen","lat":53.08189,"lon":11.88469,"msid":15440},{"mkz":"29380005","name":"Groß Woltersdorf","lat":53.08349,"lon":12.15541,"msid":15441},{"mkz":"29391201","name":"Brüsenhagen UP","lat":53.04144,"lon":12.31044,"msid":15443},{"mkz":"29391202","name":"Brüsenhagen OP","lat":53.04145,"lon":12.31047,"msid":15442},{"mkz":"29391203","name":"Brüsenhagen MP","lat":53.04145,"lon":12.31047,"msid":15270},{"mkz":"29400520","name":"Blumenthal","lat":53.08371,"lon":12.34425,"msid":15162},{"mkz":"29400544","name":"Bork, Wasserwerk","lat":53.02117,"lon":12.4258,"msid":15303},{"mkz":"29400562","name":"Karnzow, Weg Wulkow-Bork","lat":53.00336,"lon":12.4602,"msid":13957},{"mkz":"29410540","name":"Teetz, 50 m südl.","lat":53.01331,"lon":12.50386,"msid":13945},{"mkz":"29410630","name":"Fretzdorf, 700 m nördlich","lat":53.0753,"lon":12.54935,"msid":13946},{"mkz":"29410640","name":"Rägelin","lat":53.01616,"lon":12.64127,"msid":15213},{"mkz":"29410650","name":"Darsikow","lat":53.01769,"lon":12.58915,"msid":15403},{"mkz":"29428205","name":"Linow, Feldweg","lat":53.09606,"lon":12.82668,"msid":15001},{"mkz":"29428240","name":"Gühlen-Glienicke","lat":53.04155,"lon":12.7222,"msid":13947},{"mkz":"29428260","name":"Frankendorf","lat":53.01894,"lon":12.70377,"msid":15593},{"mkz":"29438110","name":"Rheinsberg, Rosenplan","lat":53.09464,"lon":12.88837,"msid":13943},{"mkz":"29438300","name":"Schwanow, Am Feuerwehrhaus","lat":53.04297,"lon":12.85875,"msid":15516},{"mkz":"29438310","name":"Zippelsförde, Rägelsdorf","lat":53.00705,"lon":12.89613,"msid":15901},{"mkz":"29438430","name":"Heinrichsdorf, Dorfstr., Fl","lat":53.04532,"lon":12.95603,"msid":14400},{"mkz":"29438509","name":"Heinrichsdorf Nord","lat":53.04985,"lon":12.96241,"msid":15392},{"mkz":"29443515","name":"Groß Woltersdorf, Seilershof","lat":53.0877,"lon":13.1367,"msid":14767},{"mkz":"29443540","name":"Sonnenberg","lat":53.01844,"lon":13.08469,"msid":15517},{"mkz":"29443675","name":"Gransee, Klosterstraße","lat":53.00929,"lon":13.15688,"msid":15123},{"mkz":"29443680","name":"Gransee OP","lat":53.01019,"lon":13.14168,"msid":14768},{"mkz":"29443681","name":"Gransee MP1","lat":53.01019,"lon":13.14168,"msid":14769},{"mkz":"29443682","name":"Gransee MP2","lat":53.01019,"lon":13.14168,"msid":14770},{"mkz":"29443683","name":"Gransee UP","lat":53.01019,"lon":13.14168,"msid":14099},{"mkz":"29453525","name":"Wentow OP","lat":53.05233,"lon":13.23504,"msid":16152},{"mkz":"29453530","name":"Tornow, OT Neubau","lat":53.07542,"lon":13.23552,"msid":14697},{"mkz":"29453660","name":"Altlüdersdorf","lat":53.03788,"lon":13.18788,"msid":14981},{"mkz":"29453690","name":"Ribbeck","lat":53.03188,"lon":13.25524,"msid":14982},{"mkz":"29463220","name":"Hammelspring","lat":53.07564,"lon":13.4328,"msid":15132},{"mkz":"29463383","name":"Zehdenick, Nord UP","lat":53.01199,"lon":13.35237,"msid":14639},{"mkz":"29463384","name":"Zehdenick, Nord OP","lat":53.01199,"lon":13.35237,"msid":14660},{"mkz":"29463385","name":"Zehdenick, Nord MP","lat":53.01199,"lon":13.35237,"msid":14550},{"mkz":"29463890","name":"Zehdenick-Vogelsang OP","lat":53.03704,"lon":13.39892,"msid":15131},{"mkz":"29463891","name":"Zehdenick-Vogelsang MP1","lat":53.03704,"lon":13.39892,"msid":14970},{"mkz":"29463892","name":"Zehdenick-Vogelsang MP2","lat":53.03704,"lon":13.39892,"msid":14126},{"mkz":"29470010","name":"Vietmannsdorf, Haus Nr.7","lat":53.05305,"lon":13.52687,"msid":14549},{"mkz":"29470030","name":"Götschendorf, Kieswerk OP","lat":53.08862,"lon":13.62814,"msid":15013},{"mkz":"29472968","name":"Groß Dölln,ca.2km SW Großväter","lat":52.99834,"lon":13.52844,"msid":14082},{"mkz":"29472981","name":"Reiersdorf,1km NE FH Döllnkrug","lat":53.00977,"lon":13.60679,"msid":14664},{"mkz":"29481334","name":"Poratz OP","lat":53.06607,"lon":13.79125,"msid":9632},{"mkz":"29481335","name":"Poratz UP","lat":53.06609,"lon":13.79125,"msid":9633},{"mkz":"29481337","name":"Ahlimbswalde","lat":53.04833,"lon":13.72194,"msid":10197},{"mkz":"29483281","name":"Friedrichswalde, ca.2,5 km westl.","lat":53.02871,"lon":13.66771,"msid":14640},{"mkz":"29484282","name":"Ringenwalde, Julianenhof","lat":53.06198,"lon":13.67041,"msid":14641},{"mkz":"29490617","name":"Sternfelde","lat":53.00963,"lon":13.97015,"msid":10144},{"mkz":"29490626","name":"Görlsdorf, Blumberger Mühle","lat":53.037,"lon":13.93934,"msid":10146},{"mkz":"29490630","name":"Görlsdorf OP","lat":53.05471,"lon":13.96123,"msid":9631},{"mkz":"29490632","name":"Görlsdorf OP","lat":53.04828,"lon":13.95615,"msid":9636},{"mkz":"29490633","name":"Görlsdorf UP","lat":53.04829,"lon":13.95616,"msid":9634},{"mkz":"29490634","name":"Görlsdorf","lat":53.04568,"lon":13.96078,"msid":9627},{"mkz":"29491338","name":"Kerkow","lat":53.03856,"lon":13.98709,"msid":8853},{"mkz":"29499502","name":"Wolletz","lat":53.02569,"lon":13.88681,"msid":9801},{"mkz":"29499503","name":"Wolletz","lat":53.02901,"lon":13.91853,"msid":9802},{"mkz":"29501403","name":"Angermünde,Klosterstraße 14","lat":53.01588,"lon":14.0021,"msid":9947},{"mkz":"29501404","name":"Pinnow, OP","lat":53.05234,"lon":14.08123,"msid":8539},{"mkz":"29501405","name":"Pinnow, UP","lat":53.0523,"lon":14.08121,"msid":8944},{"mkz":"29510149","name":"Vierraden (Str.Brunnengalerie)","lat":53.09499,"lon":14.30914,"msid":9662},{"mkz":"29510657","name":"Vierraden","lat":53.09112,"lon":14.32303,"msid":9663},{"mkz":"29510999","name":"Schwedt, Monplaisir","lat":53.07049,"lon":14.27308,"msid":8931},{"mkz":"29519002","name":"Schwedt, AWU","lat":53.081,"lon":14.30729,"msid":9920},{"mkz":"29519012","name":"Schwedt, Berliner Allee","lat":53.05067,"lon":14.27267,"msid":9926},{"mkz":"29519013","name":"Schwedt, Werner-Seelenbinder-Straße","lat":53.07131,"lon":14.25281,"msid":9927},{"mkz":"29519017","name":"Meyenburg","lat":53.04026,"lon":14.25538,"msid":9819},{"mkz":"29519020","name":"Meyenburg UP","lat":53.05304,"lon":14.24549,"msid":9886},{"mkz":"29519021","name":"Meyenburg OP","lat":53.0521,"lon":14.22751,"msid":9887},{"mkz":"29519023","name":"Zützen, Apfelallee","lat":53.0326,"lon":14.22764,"msid":9872},{"mkz":"29519024","name":"Schwedt, Vierradener Chaussee","lat":53.0748,"lon":14.28457,"msid":15282},{"mkz":"29519026","name":"Vierraden,eh. Lindenhof","lat":53.09175,"lon":14.29449,"msid":9876},{"mkz":"29519029","name":"Schwedt, Clara-Zetkin-Straße","lat":53.05445,"lon":14.28096,"msid":9821},{"mkz":"29519030","name":"Schw.,Krzg.Teichm.-Seelenb.str","lat":53.0634,"lon":14.27304,"msid":9870},{"mkz":"29519040","name":"Schwedt, Kraftverkehr","lat":53.06567,"lon":14.29295,"msid":9880},{"mkz":"29519042","name":"Schwedt, Kastanienallee B2","lat":53.0648,"lon":14.2374,"msid":9410},{"mkz":"29519045","name":"Schwedt, Kastanienallee B5","lat":53.05936,"lon":14.25466,"msid":9417},{"mkz":"29519047","name":"Criewen","lat":53.02037,"lon":14.23138,"msid":9296},{"mkz":"30360009","name":"Hinzdorf, OT Schadebeuster","lat":52.96298,"lon":11.80417,"msid":13387},{"mkz":"30360010","name":"Hinzdorf-Zwischendeich","lat":52.96924,"lon":11.80382,"msid":14338},{"mkz":"30360020","name":"Wittenberge, Brahmhorst","lat":52.98669,"lon":11.69551,"msid":14611},{"mkz":"30360035","name":"Hinzdorf,Zwischend., südl.","lat":52.96741,"lon":11.79933,"msid":13361},{"mkz":"30360036","name":"Hinzdorf, Abzw. n. Zwisch.","lat":52.97272,"lon":11.8112,"msid":13362},{"mkz":"30370021","name":"Rühstädt, Gut","lat":52.91697,"lon":11.86502,"msid":13357},{"mkz":"30370039","name":"Karthan OP","lat":52.99384,"lon":11.94003,"msid":13274},{"mkz":"30370040","name":"Karthan UP","lat":52.99384,"lon":11.94003,"msid":13275},{"mkz":"30370041","name":"Rühstädt, Roggbergstraße OP","lat":52.92324,"lon":11.87445,"msid":13276},{"mkz":"30370046","name":"Groß Lüben","lat":52.97065,"lon":11.9259,"msid":15265},{"mkz":"30370047","name":"Siegrön, Brücke Cederbach OP","lat":52.98202,"lon":11.96435,"msid":15266},{"mkz":"30370048","name":"Siegrön, Brücke Cederbach UP","lat":52.98202,"lon":11.96435,"msid":14420},{"mkz":"30370060","name":"Bälow, Trafohaus","lat":52.93995,"lon":11.8646,"msid":13333},{"mkz":"30380002","name":"Roddan, Weg n. Plattenburg","lat":52.92332,"lon":12.00705,"msid":13271},{"mkz":"30380004","name":"Roddan, Bahn","lat":52.9316,"lon":12.01673,"msid":14656},{"mkz":"30380005","name":"Glöwen","lat":52.91507,"lon":12.08448,"msid":14657},{"mkz":"30390001","name":"Schönhagen","lat":52.97858,"lon":12.18456,"msid":14658},{"mkz":"30390003","name":"Barenthin OP","lat":52.92361,"lon":12.23998,"msid":14708},{"mkz":"30390004","name":"Barenthin UP","lat":52.92361,"lon":12.23998,"msid":14709},{"mkz":"30390010","name":"Gumtow, Weg nach Heinzhof","lat":52.98434,"lon":12.26196,"msid":14711},{"mkz":"30400558","name":"Karnzow, 1,5 km nördl","lat":52.99821,"lon":12.44007,"msid":14653},{"mkz":"30400566","name":"Drewen, nördl. alte Deponie","lat":52.99098,"lon":12.42408,"msid":14560},{"mkz":"30400574","name":"Drewen, Weg Stolpe-Teetz","lat":52.97939,"lon":12.44956,"msid":14648},{"mkz":"30400580","name":"Stolpe, Roteichen","lat":52.97247,"lon":12.42597,"msid":14354},{"mkz":"30400591","name":"Stolpe, Birkenallee","lat":52.9715,"lon":12.44427,"msid":14307},{"mkz":"30400670","name":"Bantikow","lat":52.93144,"lon":12.48655,"msid":14311},{"mkz":"30401381","name":"Kyritz, Feuerwache, FL","lat":52.94275,"lon":12.39252,"msid":14358},{"mkz":"30401382","name":"Kyritz, Königsfließ","lat":52.9567,"lon":12.36059,"msid":14359},{"mkz":"30401383","name":"Kyritz, Feuerwache UF","lat":52.94295,"lon":12.39291,"msid":15050},{"mkz":"30410630","name":"Tornow, Weg n. Schönberg","lat":52.96226,"lon":12.50772,"msid":14716},{"mkz":"30410700","name":"Lögow","lat":52.91281,"lon":12.58135,"msid":13235},{"mkz":"30410800","name":"Katerbow, Weg nach Walsleben","lat":52.97524,"lon":12.6492,"msid":15902},{"mkz":"30410900","name":"Brunn","lat":52.91497,"lon":12.51416,"msid":13249},{"mkz":"30429033","name":"Storbeck Nord OP","lat":52.98001,"lon":12.753,"msid":14102},{"mkz":"30429034","name":"Storbeck Nord UP","lat":52.98001,"lon":12.753,"msid":14127},{"mkz":"30429043","name":"Alt Ruppin, Queste OP","lat":52.966,"lon":12.82802,"msid":13987},{"mkz":"30429044","name":"Alt Ruppin, Queste MP","lat":52.966,"lon":12.82802,"msid":14010},{"mkz":"30429045","name":"Alt Ruppin, Queste UP","lat":52.966,"lon":12.82802,"msid":14011},{"mkz":"30429065","name":"Neuruppin, Einf. Rieself. OP","lat":52.94806,"lon":12.81228,"msid":14704},{"mkz":"30429066","name":"Neuruppin, Einf. Rieself. MP1","lat":52.94806,"lon":12.81228,"msid":14705},{"mkz":"30429067","name":"Neuruppin, Einf. Rieself. MP2","lat":52.94806,"lon":12.81228,"msid":14706},{"mkz":"30429068","name":"Neuruppin, Einf. Rieself. UP","lat":52.94806,"lon":12.81228,"msid":14008},{"mkz":"30429666","name":"Neuruppin, am Klappgraben OP","lat":52.93341,"lon":12.78455,"msid":14605},{"mkz":"30429700","name":"Darritz OP","lat":52.94579,"lon":12.70772,"msid":14546},{"mkz":"30429701","name":"Darritz UP","lat":52.94579,"lon":12.70772,"msid":14547},{"mkz":"30429750","name":"Neuruppin, Amtsgericht","lat":52.92737,"lon":12.80763,"msid":15321},{"mkz":"30438393","name":"Alt Ruppin, Roofwinkel OP","lat":52.94834,"lon":12.86474,"msid":14955},{"mkz":"30438394","name":"Alt Ruppin, Roofwinkel MP","lat":52.94834,"lon":12.86474,"msid":14224},{"mkz":"30438395","name":"Alt Ruppin, Roofwinkel UP","lat":52.94834,"lon":12.86474,"msid":14225},{"mkz":"30438402","name":"Altruppin, Gildenhall OP","lat":52.93891,"lon":12.83876,"msid":14181},{"mkz":"30438404","name":"Altruppin, Gildenhall UP","lat":52.93891,"lon":12.83876,"msid":14222},{"mkz":"30438410","name":"Krangen, Radweg nach Zippelsförde OP","lat":52.9833,"lon":12.86766,"msid":13953},{"mkz":"30438511","name":"Lindow, Am Bahndamm","lat":52.96712,"lon":12.98262,"msid":14712},{"mkz":"30438520","name":"Schönberg (Mark)","lat":52.93314,"lon":12.97196,"msid":15519},{"mkz":"30448500","name":"Großmutz, Zum Beetz","lat":52.93051,"lon":13.11652,"msid":15408},{"mkz":"30448600","name":"Meseberg","lat":52.96905,"lon":13.09843,"msid":14194},{"mkz":"30448615","name":"Glambeck","lat":52.93911,"lon":13.05133,"msid":14013},{"mkz":"30453790","name":"Zehdenick, Breitscheid-Str.","lat":52.97607,"lon":13.3269,"msid":13963},{"mkz":"30453795","name":"Klein Mutz bei Zehdenick","lat":52.95893,"lon":13.28605,"msid":15133},{"mkz":"30453805","name":"Neulöwenberg","lat":52.90838,"lon":13.21014,"msid":14927},{"mkz":"30453820","name":"Häsen, Weg nach Klein Mutz","lat":52.95113,"lon":13.23663,"msid":15520},{"mkz":"30454311","name":"Falkenthal, Breite Straße","lat":52.90134,"lon":13.2981,"msid":16153},{"mkz":"30460968","name":"Groß Schönebeck-Schluft OP","lat":52.92804,"lon":13.49623,"msid":14741},{"mkz":"30460969","name":"Groß Schönebeck-Schluft UP","lat":52.92804,"lon":13.49623,"msid":14742},{"mkz":"30461768","name":"Kappe, Bullenwiesen","lat":52.96524,"lon":13.45316,"msid":13234},{"mkz":"30463568","name":"Liebenthal, ca. 2 km westl. OP","lat":52.91611,"lon":13.42863,"msid":13633},{"mkz":"30463569","name":"Liebenthal, ca. 2 km westl. UP","lat":52.91611,"lon":13.42863,"msid":14006},{"mkz":"30463791","name":"Zehdenick, Friedhof","lat":52.97351,"lon":13.33267,"msid":8955},{"mkz":"30464252","name":"Krewelin, Ortsausgang","lat":52.94297,"lon":13.38473,"msid":15209},{"mkz":"30470030","name":"Groß Schönebeck, West OP","lat":52.904,"lon":13.521,"msid":14373},{"mkz":"30470031","name":"Groß Schönebeck, West UP","lat":52.904,"lon":13.521,"msid":14374},{"mkz":"30470368","name":"Groß Schönebeck, FH Hirschb. OP","lat":52.93456,"lon":13.55253,"msid":13999},{"mkz":"30470369","name":"Groß Schönebeck, FH Hirschb. UP","lat":52.93456,"lon":13.55253,"msid":14000},{"mkz":"30470581","name":"Groß Schönebeck,SW Hubertusstock","lat":52.91849,"lon":13.64743,"msid":8852},{"mkz":"30471179","name":"Groß Schönebeck,NE Suppenbruch","lat":52.94869,"lon":13.6489,"msid":13991},{"mkz":"30472268","name":"Gr.Schönebeck,östl.Gr.-Glas.-S","lat":52.95745,"lon":13.52176,"msid":14161},{"mkz":"30473068","name":"Groß Schönebeck, Schwabensluch","lat":52.96992,"lon":13.58023,"msid":14165},{"mkz":"30476001","name":"Kienhorst OP","lat":52.974,"lon":13.64556,"msid":13909},{"mkz":"30476003","name":"Kienhorst UP","lat":52.974,"lon":13.64568,"msid":13914},{"mkz":"30480596","name":"Altenhof","lat":52.92031,"lon":13.72911,"msid":10239},{"mkz":"30480881","name":"Joachimsthal,ca.2 km südwestl.","lat":52.96308,"lon":13.71192,"msid":8862},{"mkz":"30481528","name":"Joachimsthal, Forst, OP","lat":52.99215,"lon":13.69711,"msid":8692},{"mkz":"30481529","name":"Joachimsthal, Forst, UP","lat":52.99215,"lon":13.69713,"msid":8693},{"mkz":"30491504","name":"Herzsprung","lat":52.97652,"lon":13.9811,"msid":10243},{"mkz":"30491505","name":"Herzsprung OP","lat":52.96458,"lon":13.98588,"msid":10244},{"mkz":"30491506","name":"Herzsprung MP","lat":52.96458,"lon":13.98588,"msid":10234},{"mkz":"30491508","name":"Herzsprung UP","lat":52.96458,"lon":13.98588,"msid":10240},{"mkz":"30491509","name":"Herzsprung","lat":52.96607,"lon":13.98545,"msid":9358},{"mkz":"30491510","name":"Herzsprung OP","lat":52.96754,"lon":13.985,"msid":9359},{"mkz":"30491511","name":"Herzsprung UP","lat":52.96754,"lon":13.985,"msid":9360},{"mkz":"30491512","name":"Herzsprung","lat":52.96772,"lon":13.98488,"msid":10237},{"mkz":"30491513","name":"Herzsprung OP","lat":52.96976,"lon":13.98292,"msid":10242},{"mkz":"30491514","name":"Herzsprung UP","lat":52.96976,"lon":13.98292,"msid":10250},{"mkz":"30491527","name":"Serwest","lat":52.93106,"lon":13.93758,"msid":8943},{"mkz":"30491532","name":"Senftenhütte, OP","lat":52.93471,"lon":13.86498,"msid":8987},{"mkz":"30491533","name":"Senftenhütte, UP","lat":52.9347,"lon":13.86492,"msid":8988},{"mkz":"30500621","name":"Lunow Süd","lat":52.91456,"lon":14.11767,"msid":10232},{"mkz":"30509090","name":"Stolpe-OP","lat":52.97604,"lon":14.11469,"msid":10157},{"mkz":"30509092","name":"Stolpe","lat":52.96223,"lon":14.11326,"msid":9298},{"mkz":"30509093","name":"Crussow OP","lat":52.9929,"lon":14.09858,"msid":10159},{"mkz":"31391523","name":"Breddin","lat":52.86608,"lon":12.22685,"msid":14393},{"mkz":"31391541","name":"Damelack Ost","lat":52.88827,"lon":12.18135,"msid":15114},{"mkz":"31391622","name":"Lohm","lat":52.85243,"lon":12.31053,"msid":14567},{"mkz":"31391801","name":"Babe","lat":52.81791,"lon":12.31259,"msid":14350},{"mkz":"31400785","name":"Wusterhausen, Wiesengrund","lat":52.88327,"lon":12.46536,"msid":15117},{"mkz":"31400820","name":"Zernitz, Bahnhof","lat":52.89455,"lon":12.34318,"msid":15255},{"mkz":"31400830","name":"Neustadt, Birkenweg","lat":52.85445,"lon":12.43313,"msid":15051},{"mkz":"31401603","name":"Sieversdorf, Weg nach Goldbeck","lat":52.83228,"lon":12.3839,"msid":17203},{"mkz":"31401621","name":"Koppenbrück","lat":52.84677,"lon":12.34427,"msid":14108},{"mkz":"31409918","name":"Dreetz, Waldeck","lat":52.819,"lon":12.46838,"msid":14530},{"mkz":"31410787","name":"Ganzer, B167 OP","lat":52.8769,"lon":12.54859,"msid":15380},{"mkz":"31410788","name":"Ganzer, B167 UP","lat":52.8769,"lon":12.54859,"msid":15166},{"mkz":"31419708","name":"Nackel, Rohrlacker Weg OP","lat":52.82688,"lon":12.57765,"msid":14484},{"mkz":"31419709","name":"Nackel, Rohrlacker Weg UP","lat":52.82688,"lon":12.57765,"msid":14531},{"mkz":"31419710","name":"Wildberg, Heiningenberg OP","lat":52.86561,"lon":12.61523,"msid":14485},{"mkz":"31419712","name":"Wildberg, Heiningenberg UP","lat":52.86561,"lon":12.61523,"msid":14435},{"mkz":"31419861","name":"Segeletz","lat":52.81375,"lon":12.52186,"msid":15173},{"mkz":"31429400","name":"Langen","lat":52.83156,"lon":12.80474,"msid":15212},{"mkz":"31429402","name":"Tarmow, Weg zum Badesee","lat":52.80196,"lon":12.79856,"msid":14272},{"mkz":"31429506","name":"Fehrbellin, Lentzker Mühle OP","lat":52.80906,"lon":12.71908,"msid":17222},{"mkz":"31429507","name":"Fehrbellin, Lentzker Mühle UP","lat":52.80906,"lon":12.71908,"msid":17223},{"mkz":"31429731","name":"Stöffin, Sportplatz","lat":52.87439,"lon":12.74402,"msid":15163},{"mkz":"31429740","name":"Walchow, Stöffiner Weg","lat":52.84773,"lon":12.75527,"msid":15903},{"mkz":"31429757","name":"Manker, Dorfstraße 58","lat":52.84531,"lon":12.67459,"msid":15402},{"mkz":"31439116","name":"Radensleben","lat":52.87982,"lon":12.93827,"msid":17175},{"mkz":"31439300","name":"Papstthum","lat":52.84262,"lon":12.92651,"msid":14555},{"mkz":"31439400","name":"Ziethenhorst Nordost","lat":52.80773,"lon":12.89711,"msid":13340},{"mkz":"31445100","name":"Löwenberg OP","lat":52.88632,"lon":13.15727,"msid":14090},{"mkz":"31445102","name":"Linde, Forsthaus Kerkow OP","lat":52.87175,"lon":13.12273,"msid":14094},{"mkz":"31445103","name":"Linde, Forsthaus Kerkow MP","lat":52.87175,"lon":13.12273,"msid":14415},{"mkz":"31445104","name":"Linde, Forsthaus Kerkow UP","lat":52.87175,"lon":13.12273,"msid":14092},{"mkz":"31445105","name":"Linde, Friedhof","lat":52.89274,"lon":13.12309,"msid":14089},{"mkz":"31445115","name":"Beetz","lat":52.82296,"lon":13.05065,"msid":14926},{"mkz":"31449104","name":"Ludwigsaue","lat":52.82819,"lon":13.00753,"msid":13927},{"mkz":"31449105","name":"Rüthnick, Plantage","lat":52.87394,"lon":13.00215,"msid":13928},{"mkz":"31449107","name":"Rüthnick, Bundesforst OP","lat":52.87056,"lon":13.02174,"msid":15009},{"mkz":"31449108","name":"Rüthnick, Bundesforst MP2","lat":52.87056,"lon":13.02174,"msid":13929},{"mkz":"31449109","name":"Rüthnick, Bundesforst MP1","lat":52.87056,"lon":13.02174,"msid":14087},{"mkz":"31449110","name":"Rüthnick, Bundesforst UP","lat":52.87056,"lon":13.02174,"msid":15060},{"mkz":"31449210","name":"Beetz OP","lat":52.8145,"lon":12.99992,"msid":14088},{"mkz":"31449211","name":"Beetz UP","lat":52.8145,"lon":12.99992,"msid":13924},{"mkz":"31449212","name":"Sommerfeld, Neuendorfer Weg","lat":52.80594,"lon":13.0653,"msid":14693},{"mkz":"31449220","name":"Neuendorf, Schleuener Weg","lat":52.83002,"lon":13.11885,"msid":14595},{"mkz":"31454608","name":"Neuholland, Büdnerhaus","lat":52.83376,"lon":13.3019,"msid":14628},{"mkz":"31454653","name":"Neu Friedrichsthal","lat":52.79983,"lon":13.26044,"msid":14525},{"mkz":"31455202","name":"Teschendorf, Kurve","lat":52.84255,"lon":13.19534,"msid":14624},{"mkz":"31455260","name":"Nassenheide","lat":52.82332,"lon":13.21463,"msid":14780},{"mkz":"31464501","name":"Liebenwalde, Sandberge","lat":52.85684,"lon":13.40756,"msid":13885},{"mkz":"31464518","name":"Liebenwalde, Liebenth. Weg OP","lat":52.89045,"lon":13.41054,"msid":14081},{"mkz":"31464520","name":"Liebenwalde, Liebenth. Weg UP","lat":52.89045,"lon":13.41054,"msid":13884},{"mkz":"31464604","name":"Rehmate OP","lat":52.80622,"lon":13.42012,"msid":15135},{"mkz":"31464605","name":"Rehmate MP1","lat":52.80624,"lon":13.42016,"msid":14247},{"mkz":"31464607","name":"Rehmate UP","lat":52.80624,"lon":13.42016,"msid":14249},{"mkz":"31464630","name":"Kreuzbruch","lat":52.82327,"lon":13.40684,"msid":14983},{"mkz":"31464655","name":"Bernöwe, Ortsausgang","lat":52.81628,"lon":13.34082,"msid":16156},{"mkz":"31464700","name":"Neuholland","lat":52.87379,"lon":13.34069,"msid":14210},{"mkz":"31464705","name":"Böhmerheide OP","lat":52.88477,"lon":13.49354,"msid":14928},{"mkz":"31464706","name":"Böhmerheide UP","lat":52.88477,"lon":13.49354,"msid":14975},{"mkz":"31471802","name":"Marienwerder","lat":52.84147,"lon":13.59478,"msid":8679},{"mkz":"31471805","name":"Marienwerder OP","lat":52.84872,"lon":13.60962,"msid":8682},{"mkz":"31471806","name":"Marienwerder UP","lat":52.84872,"lon":13.60956,"msid":8673},{"mkz":"31471807","name":"Ruhlsdorf OP","lat":52.8276,"lon":13.59219,"msid":10166},{"mkz":"31471808","name":"Ruhlsdorf UP","lat":52.8276,"lon":13.59219,"msid":10167},{"mkz":"31471812","name":"Sophienstädt OP","lat":52.80693,"lon":13.59145,"msid":9958},{"mkz":"31471813","name":"Sophienstädt UP","lat":52.80693,"lon":13.59145,"msid":9959},{"mkz":"31471816","name":"Klandorf OP","lat":52.87875,"lon":13.56803,"msid":8635},{"mkz":"31471818","name":"Klandorf Ost OP","lat":52.87389,"lon":13.59175,"msid":8685},{"mkz":"31471820","name":"Finowfurt, Autobahnmeisterei OP","lat":52.8518,"lon":13.6624,"msid":9965},{"mkz":"31471821","name":"Finowfurt, Autobahnmeisterei UP","lat":52.85183,"lon":13.66239,"msid":9737},{"mkz":"31474500","name":"Zerpenschleuse","lat":52.86706,"lon":13.50743,"msid":8857},{"mkz":"31480594","name":"Lichterfelde","lat":52.85797,"lon":13.78261,"msid":9963},{"mkz":"31481014","name":"Eberswalde, Marien-/Bollwerkstraße","lat":52.8363,"lon":13.82511,"msid":8720},{"mkz":"31481070","name":"Eberswalde, Hausberg 2, P 1070","lat":52.83232,"lon":13.8265,"msid":9747},{"mkz":"31481174","name":"Eberswalde, VPKA, P 1174, Ammonpark","lat":52.83207,"lon":13.81753,"msid":9748},{"mkz":"31481186","name":"Eberswalde, Ossietzkystraße, P 1186","lat":52.83015,"lon":13.81861,"msid":9744},{"mkz":"31481901","name":"Lichterfelde","lat":52.86778,"lon":13.72911,"msid":9742},{"mkz":"31481902","name":"Finow, am Kanalweg","lat":52.858,"lon":13.73084,"msid":9743},{"mkz":"31481904","name":"Finow, Schwanenteich","lat":52.84048,"lon":13.72884,"msid":9606},{"mkz":"31481905","name":"Finow, Erich-Weinert-Straße","lat":52.83715,"lon":13.7279,"msid":9607},{"mkz":"31481906","name":"Finowfurt, WSA OP","lat":52.85848,"lon":13.68304,"msid":9356},{"mkz":"31481907","name":"Finowfurt, WSA UP","lat":52.85851,"lon":13.68306,"msid":9357},{"mkz":"31481908","name":"Eberswalde, Clara-Zetkin-Siedlung OP","lat":52.8595,"lon":13.72625,"msid":8722},{"mkz":"31481912","name":"Finow, HyEb 1/62 UP","lat":52.83194,"lon":13.72382,"msid":10154},{"mkz":"31481914","name":"Eberswalde, Clara-Zetkin-Siedlung MP","lat":52.8595,"lon":13.72625,"msid":10156},{"mkz":"31481915","name":"Eberswalde, Clars-Zetkin-Siedlung UP","lat":52.8595,"lon":13.72625,"msid":10149},{"mkz":"31481916","name":"Spechthausen, HyEb 3/61","lat":52.814,"lon":13.75042,"msid":10150},{"mkz":"31481920","name":"Britz, HyEb 14/75 MP","lat":52.88423,"lon":13.81485,"msid":10170},{"mkz":"31481921","name":"Britz, Oderberger Str.10/75 OP","lat":52.87094,"lon":13.82646,"msid":10165},{"mkz":"31481922","name":"Ebersw., Hochbaumeisterei/Lidl","lat":52.83433,"lon":13.79498,"msid":8677},{"mkz":"31481923","name":"Eberswalde,Schillertreppe","lat":52.82837,"lon":13.81836,"msid":8688},{"mkz":"31481924","name":"Eberswalde,SVKE","lat":52.8867,"lon":13.82568,"msid":8689},{"mkz":"31481925","name":"Werbellin, Nachtwächtersteig","lat":52.89135,"lon":13.70136,"msid":8690},{"mkz":"31481927","name":"Eberswalde, Nagelstraße","lat":52.83274,"lon":13.82392,"msid":8683},{"mkz":"31481928","name":"Eberswalde, Kirchstraße, Pfarrergrund","lat":52.8315,"lon":13.82035,"msid":8674},{"mkz":"31481929","name":"Eberswalde, Friedrich-Ebert-Straße, B 34","lat":52.83344,"lon":13.81953,"msid":8675},{"mkz":"31481930","name":"Eberswalde, Kreuzstraße, Rathaus, P 18","lat":52.83417,"lon":13.82178,"msid":8686},{"mkz":"31481931","name":"Eberswalde, Denkmal Synagoge","lat":52.83132,"lon":13.81843,"msid":16151},{"mkz":"31481932","name":"Trampe, Forst","lat":52.80777,"lon":13.82162,"msid":8694},{"mkz":"31481933","name":"Eberswalde, Heinrich-Heine-Straße","lat":52.82799,"lon":13.82457,"msid":8721},{"mkz":"31481962","name":"Schönholz, OP","lat":52.80595,"lon":13.75181,"msid":9955},{"mkz":"31481963","name":"Schönholz, UP","lat":52.80595,"lon":13.75181,"msid":9966},{"mkz":"31481993","name":"Eberswalde-Finow OP","lat":52.8188,"lon":13.7122,"msid":8731},{"mkz":"31481994","name":"Eberswalde-Finow MP","lat":52.8188,"lon":13.7122,"msid":8727},{"mkz":"31481995","name":"Eberswalde-Finow UP","lat":52.8188,"lon":13.7122,"msid":8856},{"mkz":"31490600","name":"Neuehütte","lat":52.86202,"lon":13.87129,"msid":8672},{"mkz":"31491980","name":"Sandkrug HyFiw 30/70","lat":52.86815,"lon":13.8676,"msid":8616},{"mkz":"31491981","name":"Sandkrug OP","lat":52.8845,"lon":13.8813,"msid":8617},{"mkz":"31491982","name":"Sandkrug MP","lat":52.88452,"lon":13.8813,"msid":8618},{"mkz":"31491988","name":"Sandkrug MP1, OHK","lat":52.85816,"lon":13.91718,"msid":8615},{"mkz":"31491991","name":"Falkenberg, Bushaltestelle","lat":52.8091,"lon":13.95125,"msid":14846},{"mkz":"31491992","name":"Hohenfinow-Struwenberg","lat":52.8279,"lon":13.94087,"msid":9814},{"mkz":"31500622","name":"Hohensaaten","lat":52.87582,"lon":14.14279,"msid":9610},{"mkz":"31500975","name":"Hohenwutzen","lat":52.84549,"lon":14.12031,"msid":9812},{"mkz":"31502019","name":"Hohenwutzen,Kiga, WW-Gelände","lat":52.83996,"lon":14.11131,"msid":8963},{"mkz":"31502021","name":"Bralitz, KSP Nr. 3","lat":52.82817,"lon":14.00764,"msid":8611},{"mkz":"31502022","name":"Wendtshof KSP Nr. 8","lat":52.80662,"lon":14.01064,"msid":13995},{"mkz":"31502025","name":"Herrenwiese,  KSP 16","lat":52.80034,"lon":14.10015,"msid":10259},{"mkz":"31502026","name":"Neuglietzen","lat":52.82278,"lon":14.1231,"msid":9612},{"mkz":"31502029","name":"Hohensaatener Polder","lat":52.85679,"lon":14.12958,"msid":9615},{"mkz":"31502031","name":"Hohensaatener Polder","lat":52.86942,"lon":14.10007,"msid":8620},{"mkz":"31502033","name":"Hohensaatener Polder","lat":52.86225,"lon":14.06146,"msid":10258},{"mkz":"31502035","name":"Hohensaatener Polder","lat":52.86387,"lon":14.13916,"msid":10295},{"mkz":"31502036","name":"Hohenwutzen, Neubhrg.","lat":52.83638,"lon":14.11643,"msid":9611},{"mkz":"31502037","name":"Hohenwutzen","lat":52.82128,"lon":14.15709,"msid":9813},{"mkz":"31502039","name":"Gabow, KSP 12","lat":52.81578,"lon":14.07843,"msid":8964},{"mkz":"31502044","name":"Hohensaatener Polder","lat":52.85177,"lon":14.09845,"msid":9617},{"mkz":"31502045","name":"Hohensaatener Polder","lat":52.85194,"lon":14.07438,"msid":9618},{"mkz":"31502053","name":"Oderberg","lat":52.8514,"lon":14.03365,"msid":8967},{"mkz":"31502055","name":"Oderberg (k.Trasse Alte Oder)","lat":52.8577,"lon":14.03691,"msid":8960},{"mkz":"31502059","name":"Neu-Tornow","lat":52.80465,"lon":14.07715,"msid":10106},{"mkz":"31502069","name":"Neuranft","lat":52.8106,"lon":14.1368,"msid":9804},{"mkz":"31502075","name":"Oderberg, Schmidtstraße, KSP 2","lat":52.8614,"lon":14.04679,"msid":8968},{"mkz":"31502091","name":"Hohenwutzen, Friedhof","lat":52.84466,"lon":14.11225,"msid":8970},{"mkz":"31506005","name":"Hohensaaten, Schleuse, Nr.5","lat":52.8779,"lon":14.1492,"msid":9807},{"mkz":"31509214","name":"Tr. Hohensaaten Süd, Rohr IV","lat":52.85412,"lon":14.12728,"msid":8980},{"mkz":"31509215","name":"Tr. Hohensaaten Süd, Rohr V","lat":52.85421,"lon":14.12706,"msid":8981},{"mkz":"31509218","name":"Tr. Hohensaaten Süd, Rohr VIII","lat":52.85457,"lon":14.12623,"msid":9039},{"mkz":"31510212","name":"Zäckericker-Loose, Neub., KSP Nr. 22","lat":52.81174,"lon":14.21846,"msid":9034},{"mkz":"31512060","name":"Neurüdnitz","lat":52.8183,"lon":14.18335,"msid":8451},{"mkz":"31512062","name":"Neurüdnitz, Bienenwerder","lat":52.79914,"lon":14.20965,"msid":9162},{"mkz":"31512063","name":"Zäckericker Loose, Neub.","lat":52.8129,"lon":14.21937,"msid":9163},{"mkz":"31519235","name":"Tr.Neurüdnitz Ost, Rohr V OP","lat":52.8188,"lon":14.1834,"msid":8651},{"mkz":"31519236","name":"Tr.Neurüdnitz Ost, Rohr VI UP","lat":52.8188,"lon":14.1834,"msid":8662},{"mkz":"31519237","name":"Tr.Neurüdnitz Ost, Rohr VII","lat":52.8185,"lon":14.1833,"msid":8663},{"mkz":"32392310","name":"Spaatz Ost","lat":52.70588,"lon":12.32724,"msid":14481},{"mkz":"32392350","name":"Gülpe, nahe Feldscheune OP","lat":52.72191,"lon":12.24147,"msid":14487},{"mkz":"32392351","name":"Gülpe, nahe Feldscheune UP","lat":52.72191,"lon":12.24147,"msid":14488},{"mkz":"32399974","name":"Kietz, L17","lat":52.75763,"lon":12.3103,"msid":17204},{"mkz":"32399982","name":"Strodehne Nord am Deich","lat":52.77147,"lon":12.23521,"msid":14778},{"mkz":"32409915","name":"Giesenhorst, Klessener Straße","lat":52.75793,"lon":12.45681,"msid":17205},{"mkz":"32409932","name":"Rhinow, Sportplatz MP","lat":52.74093,"lon":12.3328,"msid":14989},{"mkz":"32409933","name":"Rhinow, Sportplatz UP","lat":52.74093,"lon":12.3328,"msid":14632},{"mkz":"32417780","name":"Görne Südwest","lat":52.69888,"lon":12.50076,"msid":13715},{"mkz":"32419812","name":"Vietznitz, Ringstraße 1","lat":52.72948,"lon":12.62723,"msid":17206},{"mkz":"32419819","name":"Friesack, an der Kirche neu,OP","lat":52.74214,"lon":12.57896,"msid":15426},{"mkz":"32419820","name":"Friesack, an der Kirche neu,UP","lat":52.74214,"lon":12.57896,"msid":14817},{"mkz":"32419840","name":"Wutzetz, östlich B5","lat":52.78861,"lon":12.55428,"msid":15427},{"mkz":"32419851","name":"Friesack, Bahnüberführung","lat":52.76042,"lon":12.58953,"msid":14774},{"mkz":"32419870","name":"Michaelisbruch, Wald","lat":52.78386,"lon":12.51394,"msid":13930},{"mkz":"32419879","name":"Dreetz, 3 km südöstl. OP","lat":52.79471,"lon":12.51387,"msid":14746},{"mkz":"32419880","name":"Dreetz, 3 km südöstl. UP","lat":52.79471,"lon":12.51387,"msid":14747},{"mkz":"32419938","name":"Klessen Südost OP","lat":52.73497,"lon":12.51664,"msid":13921},{"mkz":"32429403","name":"Hakenberg OP","lat":52.77951,"lon":12.83036,"msid":14387},{"mkz":"32429600","name":"Königshorst","lat":52.7113,"lon":12.78832,"msid":15904},{"mkz":"32429805","name":"Briesener Zootzen","lat":52.75721,"lon":12.67361,"msid":15428},{"mkz":"32439500","name":"Ziethenhorst Süd","lat":52.79396,"lon":12.87556,"msid":14217},{"mkz":"32439502","name":"Flatow, Weg nach Linumhorst","lat":52.75395,"lon":12.94563,"msid":15003},{"mkz":"32439510","name":"Linum-Kuhhorst","lat":52.73062,"lon":12.85924,"msid":15905},{"mkz":"32445001","name":"Bärenklau, Eichstädt. Weg 2","lat":52.7047,"lon":13.14007,"msid":14157},{"mkz":"32445005","name":"Bärenklau Remontehof OP","lat":52.71906,"lon":13.14649,"msid":15136},{"mkz":"32445006","name":"Bärenklau Remontehof UP","lat":52.71906,"lon":13.14649,"msid":15181},{"mkz":"32445310","name":"Hohenbruch, 450m östl. Weg","lat":52.77889,"lon":13.12255,"msid":14158},{"mkz":"32449202","name":"Hohenbruch, Waldesruh","lat":52.79251,"lon":13.16455,"msid":13422},{"mkz":"32449203","name":"Kremmen, Klein Asien","lat":52.78791,"lon":13.03063,"msid":13423},{"mkz":"32449204","name":"Groß Ziethen OP","lat":52.73051,"lon":13.03291,"msid":13424},{"mkz":"32449205","name":"Groß Ziethen MP1","lat":52.73051,"lon":13.03291,"msid":13425},{"mkz":"32449206","name":"Groß Ziethen MP2","lat":52.73051,"lon":13.03291,"msid":13636},{"mkz":"32449209","name":"Kremmen, Luchweg","lat":52.77051,"lon":13.01836,"msid":13415},{"mkz":"32449210","name":"Sommerswalde OP","lat":52.74932,"lon":13.11055,"msid":13416},{"mkz":"32449211","name":"Sommerswalde UP","lat":52.7493,"lon":13.11053,"msid":13417},{"mkz":"32449220","name":"Vehlefanz, Lindenweg OP","lat":52.71591,"lon":13.09819,"msid":13419},{"mkz":"32449221","name":"Vehlefanz, Lindenweg UP","lat":52.71591,"lon":13.09819,"msid":13420},{"mkz":"32449223","name":"Vehlefanz, am Glockenpfuhl","lat":52.70081,"lon":13.09327,"msid":14498},{"mkz":"32449255","name":"Kremmen, Kurzer Damm","lat":52.75851,"lon":13.02832,"msid":15407},{"mkz":"32454661","name":"Sachsenhausen, am Kanal","lat":52.77268,"lon":13.27863,"msid":14291},{"mkz":"32454663","name":"Sachsenhausen, 800 m nördl.","lat":52.78833,"lon":13.23573,"msid":14292},{"mkz":"32454665","name":"Fichtengrund, Jagenstein","lat":52.78113,"lon":13.26998,"msid":14696},{"mkz":"32455002","name":"Borgsdorf-Pinnow OP","lat":52.69997,"lon":13.2461,"msid":14691},{"mkz":"32455003","name":"Borgsdorf-Pinnow UP","lat":52.69997,"lon":13.2461,"msid":14692},{"mkz":"32455015","name":"Leegebruch","lat":52.72144,"lon":13.18992,"msid":15156},{"mkz":"32455020","name":"Friedrichsthal, Dorfplatz","lat":52.79695,"lon":13.2781,"msid":15157},{"mkz":"32455305","name":"Hohenbruch, Weg n.Teerofen","lat":52.79534,"lon":13.17336,"msid":14683},{"mkz":"32455391","name":"Oranienburg, Stralsunder Straße","lat":52.75387,"lon":13.24815,"msid":15409},{"mkz":"32455395","name":"Oranienburg, Süd","lat":52.73554,"lon":13.24311,"msid":15411},{"mkz":"32455411","name":"Borgsdorf, Weg n. Lehnitz","lat":52.73013,"lon":13.26598,"msid":14617},{"mkz":"32455414","name":"Lehnitz, Mühlenb. Gestell","lat":52.7383,"lon":13.2816,"msid":14618},{"mkz":"32455418","name":"Borgsdorf,nördl. Hohe Rampe","lat":52.72446,"lon":13.27573,"msid":14621},{"mkz":"32455419","name":"Borgsdorf, B96 n. Oranienb.","lat":52.71607,"lon":13.25396,"msid":14616},{"mkz":"32455420","name":"Birkenwerder, Briese","lat":52.70211,"lon":13.29779,"msid":14495},{"mkz":"32455426","name":"Borgsdorf, am Oder-Havel-Kanal UP","lat":52.71255,"lon":13.24547,"msid":15374},{"mkz":"32462086","name":"Wandlitz OP","lat":52.74997,"lon":13.49258,"msid":9288},{"mkz":"32462087","name":"Wandlitz UP","lat":52.74996,"lon":13.49261,"msid":9287},{"mkz":"32464600","name":"Klosterfelde, Trafostation OP","lat":52.78853,"lon":13.4779,"msid":14235},{"mkz":"32464601","name":"Klosterfelde, Trafostation UP","lat":52.78853,"lon":13.4779,"msid":14234},{"mkz":"32464603","name":"Stolzenhagen, Muldestraße","lat":52.76378,"lon":13.41713,"msid":16157},{"mkz":"32464605","name":"Zehlendorf OP","lat":52.78384,"lon":13.40631,"msid":14930},{"mkz":"32464606","name":"Zehlendorf UP","lat":52.78384,"lon":13.40631,"msid":14931},{"mkz":"32465301","name":"Schmachtenhagen-Nord","lat":52.77639,"lon":13.34385,"msid":14152},{"mkz":"32465403","name":"Schmachtenhagen Ost","lat":52.75714,"lon":13.34961,"msid":15275},{"mkz":"32465412","name":"Basdorf, Nelkenstr.","lat":52.7107,"lon":13.4407,"msid":15159},{"mkz":"32465414","name":"Wandlitz, Bahnhofstraße","lat":52.74465,"lon":13.46526,"msid":15158},{"mkz":"32465430","name":"Summt","lat":52.70391,"lon":13.3696,"msid":14233},{"mkz":"32471945","name":"Danewitz OP","lat":52.73463,"lon":13.66203,"msid":9596},{"mkz":"32471947","name":"Danewitz UP","lat":52.73461,"lon":13.66202,"msid":8650},{"mkz":"32471948","name":"Lanke OP","lat":52.76602,"lon":13.56372,"msid":8661},{"mkz":"32471949","name":"Lanke UP","lat":52.76602,"lon":13.56369,"msid":8911},{"mkz":"32471950","name":"Biesenthal OP alt","lat":52.77554,"lon":13.61414,"msid":8912},{"mkz":"32471951","name":"Biesenthal UP alt","lat":52.77555,"lon":13.61413,"msid":8913},{"mkz":"32471954","name":"Rüdnitz-MP","lat":52.71399,"lon":13.61883,"msid":8975},{"mkz":"32471955","name":"Rüdnitz-UP","lat":52.71399,"lon":13.61883,"msid":9598},{"mkz":"32471958","name":"Biesenthal OP","lat":52.79399,"lon":13.62837,"msid":9599},{"mkz":"32472089","name":"Albertshof","lat":52.70258,"lon":13.64672,"msid":9286},{"mkz":"32481965","name":"Schönholz MP neu","lat":52.77312,"lon":13.74984,"msid":8977},{"mkz":"32481966","name":"Schönholz UP neu","lat":52.77309,"lon":13.74981,"msid":8468},{"mkz":"32481967","name":"Tempelfelde,Str. Richtg.Grünth","lat":52.71159,"lon":13.71021,"msid":8695},{"mkz":"32482083","name":"Heckelberg alt","lat":52.73641,"lon":13.83044,"msid":8452},{"mkz":"32492085","name":"Gersdorf, Bushaltestelle","lat":52.76978,"lon":13.88952,"msid":8991},{"mkz":"32500952","name":"Neugaul","lat":52.7557,"lon":14.11725,"msid":8776},{"mkz":"32502100","name":"Bad Freienwalde, Deponie neu","lat":52.78135,"lon":14.05646,"msid":8608},{"mkz":"32502101","name":"Wriezen, Ziegenfarm","lat":52.73397,"lon":14.1153,"msid":9323},{"mkz":"32502102","name":"Wriezen","lat":52.71055,"lon":14.1323,"msid":9281},{"mkz":"32502103","name":"Wriezen","lat":52.69919,"lon":14.13632,"msid":9282},{"mkz":"32502104","name":"Altmädewitz, KSP Nr. 26","lat":52.74595,"lon":14.16371,"msid":9321},{"mkz":"32502105","name":"Neuküstrinchen","lat":52.79362,"lon":14.14334,"msid":9327},{"mkz":"32502107","name":"Wriezen, Neubauten","lat":52.7179,"lon":14.13943,"msid":9272},{"mkz":"32502108","name":"Wriezen","lat":52.72602,"lon":14.13617,"msid":9273},{"mkz":"32502110","name":"Wriezen, Einkaufszentrum","lat":52.72086,"lon":14.13581,"msid":8607},{"mkz":"32502112","name":"Wriezen, Berliner Berg","lat":52.71472,"lon":14.13177,"msid":9325},{"mkz":"32502114","name":"Wriezen, Gartenanlage","lat":52.71023,"lon":14.13852,"msid":9270},{"mkz":"32502115","name":"Wriezen","lat":52.7026,"lon":14.13396,"msid":9279},{"mkz":"32502116","name":"Bad Freienwalde, Eberswalder Straße","lat":52.78689,"lon":14.01354,"msid":8598},{"mkz":"32502121","name":"Bad Freienwalde, Alttornow","lat":52.78563,"lon":14.03905,"msid":9278},{"mkz":"32502122","name":"Lüdersdorf, Priesterberg","lat":52.7002,"lon":14.08705,"msid":8698},{"mkz":"32502123","name":"Bad Freienwalde, Volkspark","lat":52.7838,"lon":14.0328,"msid":8597},{"mkz":"32502124","name":"Bad Freienwalde,Sonnenburger Straße","lat":52.77673,"lon":14.03173,"msid":8601},{"mkz":"32502125","name":"Bad Freienwalde, gegenüber Finanzamt","lat":52.77981,"lon":14.04367,"msid":8630},{"mkz":"32502126","name":"Bad Freienwalde, Kraftverkehr","lat":52.77605,"lon":14.05462,"msid":9268},{"mkz":"32502127","name":"Bad Freienwalde, Wriezener Straße","lat":52.77231,"lon":14.06549,"msid":8590},{"mkz":"32502128","name":"Flemmingsau, KSP Nr. 17","lat":52.78585,"lon":14.08204,"msid":8591},{"mkz":"32502129","name":"Altranft KSP Nr. 19","lat":52.7731,"lon":14.09392,"msid":9266},{"mkz":"32502131","name":"Altmädewitz","lat":52.74351,"lon":14.13946,"msid":8603},{"mkz":"32502137","name":"Rathsdorf","lat":52.75283,"lon":14.09877,"msid":8593},{"mkz":"32502140","name":"Wriezen","lat":52.7147,"lon":14.13695,"msid":8596},{"mkz":"32502171","name":"Haselberg","lat":52.70185,"lon":14.02755,"msid":9285},{"mkz":"32510209","name":"Zollbrücke, Dammhaus, neu","lat":52.78853,"lon":14.25086,"msid":8586},{"mkz":"32510955","name":"Neurüdnitz","lat":52.78052,"lon":14.16932,"msid":8631},{"mkz":"32512140","name":"Neulewin,alter Bahndamm, KSP 32","lat":52.73146,"lon":14.28175,"msid":8624},{"mkz":"32512144","name":"Neurüdnitz","lat":52.79082,"lon":14.1849,"msid":8777},{"mkz":"32512145","name":"Karlshof, KSP Nr. 28","lat":52.7498,"lon":14.25712,"msid":8644},{"mkz":"32512147","name":"Eichwerder","lat":52.71975,"lon":14.19393,"msid":8637},{"mkz":"32512148","name":"Thöringswerder, KSP Nr. 31","lat":52.71472,"lon":14.22494,"msid":8639},{"mkz":"32512149","name":"Neubarnim, KSP Nr. 36","lat":52.70247,"lon":14.304,"msid":8640},{"mkz":"32512150","name":"Friedrichshof, KSP Nr. 24","lat":52.77379,"lon":14.20998,"msid":8641},{"mkz":"32512151","name":"Altwriezener Loose","lat":52.75257,"lon":14.19532,"msid":9265},{"mkz":"32512152","name":"Altwriezen","lat":52.74145,"lon":14.20541,"msid":8583},{"mkz":"32512157","name":"Güstebiese","lat":52.75593,"lon":14.30962,"msid":8577},{"mkz":"32512166","name":"Neurüdnitz, KSP Nr. 76","lat":52.7985,"lon":14.17719,"msid":8561},{"mkz":"32512168","name":"Neulietzegöricke","lat":52.77372,"lon":14.2752,"msid":8554},{"mkz":"32512169","name":"Neulietzegöricke","lat":52.761,"lon":14.23964,"msid":8562},{"mkz":"32520960","name":"Gieshof-Mehrin, KSP Nr. 34","lat":52.72636,"lon":14.33318,"msid":8563},{"mkz":"32522181","name":"Ortwig-Graben","lat":52.71051,"lon":14.36416,"msid":8545},{"mkz":"32522182","name":"Mehrin-Fahne","lat":52.72718,"lon":14.37292,"msid":8546},{"mkz":"32522183","name":"Altblessiner Loose","lat":52.74989,"lon":14.33642,"msid":8547},{"mkz":"32522184","name":"Groß-Neuendorf, auf dem Deich","lat":52.69954,"lon":14.41222,"msid":8548},{"mkz":"32529241","name":"Tr.Gr.Neuendorf Nord I","lat":52.7161,"lon":14.38586,"msid":8544},{"mkz":"32529244","name":"Tr.Gr.Neuendorf Nord IV","lat":52.71582,"lon":14.38536,"msid":8551},{"mkz":"32529245","name":"Tr.Gr.Neuendorf Nord V OP","lat":52.71555,"lon":14.38509,"msid":9208},{"mkz":"32529247","name":"Tr.Gr.Neuendorf Nord VII","lat":52.7154,"lon":14.38487,"msid":9210},{"mkz":"32529248","name":"Tr.Gr.Neuendorf Nord VIII","lat":52.715,"lon":14.38426,"msid":9211},{"mkz":"32529249","name":"Tr.Gr.Neuendorf Nord IX","lat":52.7143,"lon":14.38323,"msid":8930},{"mkz":"32529250","name":"Tr.Gr.Neuendorf Nord X","lat":52.7136,"lon":14.38224,"msid":8549},{"mkz":"33392100","name":"Rathenow, Hermannstr.","lat":52.60044,"lon":12.30177,"msid":15512},{"mkz":"33392107","name":"Steckelsdorf,n.Ebelgünde, OP","lat":52.62196,"lon":12.27472,"msid":13959},{"mkz":"33392108","name":"Steckelsdorf,n.Ebelgünde, UP","lat":52.62196,"lon":12.27472,"msid":13960},{"mkz":"33392110","name":"Steckelsdorf Nord","lat":52.60792,"lon":12.28829,"msid":13964},{"mkz":"33392320","name":"Hohennauen, Bahnhof","lat":52.67195,"lon":12.32712,"msid":13958},{"mkz":"33402090","name":"Rathenow, Bammer Landsstraße","lat":52.60317,"lon":12.35631,"msid":15416},{"mkz":"33402098","name":"Rathenow, Karl-Marx-Platz","lat":52.61288,"lon":12.34831,"msid":15417},{"mkz":"33407900","name":"Stechow","lat":52.62838,"lon":12.45798,"msid":15418},{"mkz":"33407910","name":"Rathenow-Stechow OP","lat":52.61204,"lon":12.42423,"msid":14545},{"mkz":"33407911","name":"Rathenow-Stechow UP","lat":52.61204,"lon":12.42423,"msid":14608},{"mkz":"33407981","name":"Semlin, Heidekrug, Zum Sandberg","lat":52.64029,"lon":12.36935,"msid":15429},{"mkz":"33417575","name":"Liepe","lat":52.61224,"lon":12.601,"msid":15419},{"mkz":"33417726","name":"Nennhausen Fogue-Platz","lat":52.6061,"lon":12.50429,"msid":13712},{"mkz":"33417780","name":"Kotzen","lat":52.64175,"lon":12.51035,"msid":16431},{"mkz":"33419914","name":"Briesen, ca. 1 km südwestl. OP","lat":52.69796,"lon":12.56631,"msid":13716},{"mkz":"33419915","name":"Briesen, ca. 1 km südwestl. MP","lat":52.69796,"lon":12.56631,"msid":13717},{"mkz":"33419916","name":"Briesen, ca. 1 km südwestl. UP","lat":52.69796,"lon":12.56631,"msid":13743},{"mkz":"33419920","name":"Mühlenberge, Wagenitz","lat":52.67965,"lon":12.63543,"msid":16379},{"mkz":"33427116","name":"Berge-Lietzow","lat":52.61751,"lon":12.81506,"msid":13676},{"mkz":"33427123","name":"Berge, Berger Weg, MP","lat":52.60181,"lon":12.78055,"msid":14215},{"mkz":"33427180","name":"Ribbeck, Marienhof","lat":52.64332,"lon":12.75248,"msid":13673},{"mkz":"33427290","name":"Dreibrück","lat":52.68425,"lon":12.83031,"msid":14214},{"mkz":"33427310","name":"Paulinenaue, Kamerun","lat":52.65567,"lon":12.73587,"msid":13334},{"mkz":"33427350","name":"Paulinenaue, am Silograben, OP","lat":52.68987,"lon":12.73247,"msid":13332},{"mkz":"33427351","name":"Paulinenaue, am Silograben, UP","lat":52.68987,"lon":12.73252,"msid":14626},{"mkz":"33427520","name":"Retzow-Selbelang","lat":52.6261,"lon":12.6909,"msid":13326},{"mkz":"33437057","name":"Brieselang, Lange Straße","lat":52.59868,"lon":12.9982,"msid":14509},{"mkz":"33437090","name":"Perwenitz, Luchstraße, OP","lat":52.62977,"lon":12.97972,"msid":14515},{"mkz":"33437091","name":"Perwenitz, Luchstraße, UP","lat":52.62977,"lon":12.97972,"msid":14516},{"mkz":"33437106","name":"Nauen, Graf-Arco-Straße","lat":52.63555,"lon":12.90797,"msid":14517},{"mkz":"33437130","name":"Kienberg, Teufelshof","lat":52.66052,"lon":12.86923,"msid":14379},{"mkz":"33437220","name":"Börnicke, Str. Nauen-Börnicke, UF","lat":52.65933,"lon":12.92263,"msid":14600},{"mkz":"33442420","name":"Schönwalde, Falkenhagener Weg","lat":52.61629,"lon":13.12365,"msid":15422},{"mkz":"33442430","name":"Schönwalde Friedhof","lat":52.60681,"lon":13.12934,"msid":14282},{"mkz":"33442451","name":"Marwitz Dorfteich","lat":52.67632,"lon":13.14445,"msid":15276},{"mkz":"33442484","name":"Bötzow, gegenü. Sauerholzweg 2","lat":52.65994,"lon":13.15755,"msid":14281},{"mkz":"33442498","name":"Alt Brieselang, Wiesenweg","lat":52.61108,"lon":12.99942,"msid":15497},{"mkz":"33447102","name":"Paaren i.Gl., ca.1 km nordöstl","lat":52.65833,"lon":12.99964,"msid":14170},{"mkz":"33447300","name":"Krämerpfuhl","lat":52.69238,"lon":13.03131,"msid":14075},{"mkz":"33447305","name":"Neu-Vehlefanz","lat":52.693,"lon":13.07114,"msid":14932},{"mkz":"33451751","name":"Stolpe-Süd, Kuckucksruf OP","lat":52.62875,"lon":13.23471,"msid":15286},{"mkz":"33451752","name":"Stolpe-Süd, Kuckucksruf UP","lat":52.62875,"lon":13.23471,"msid":15371},{"mkz":"33452450","name":"Hennigsdorf, Kanal, Am Ufer 9","lat":52.61538,"lon":13.19991,"msid":14536},{"mkz":"33452451","name":"Hennigsdorf, 1,3 km v. Trappen-Allee","lat":52.6188,"lon":13.17593,"msid":14537},{"mkz":"33452454","name":"Hennigsdorf, Blockbrücke","lat":52.6407,"lon":13.16911,"msid":14594},{"mkz":"33455008","name":"Hennigsdorf, Rathausplatz OP","lat":52.63757,"lon":13.20821,"msid":14776},{"mkz":"33455011","name":"Hennigsdorf, Blumenstraße OP","lat":52.64667,"lon":13.19552,"msid":14532},{"mkz":"33455015","name":"Velten, Hohenschöpping OP","lat":52.67477,"lon":13.21783,"msid":14533},{"mkz":"33455424","name":"Borgsdorf,750m südl. Autob.","lat":52.69229,"lon":13.24144,"msid":14491},{"mkz":"33455425","name":"Velten, Gerickes Ruh OP","lat":52.69062,"lon":13.2116,"msid":14492},{"mkz":"33455426","name":"Velten, Gerickes Ruh UP","lat":52.69062,"lon":13.2116,"msid":14493},{"mkz":"33455490","name":"Velten, Mittelstraße","lat":52.69058,"lon":13.17685,"msid":15410},{"mkz":"33455572","name":"Birkenwerder","lat":52.69323,"lon":13.27633,"msid":15277},{"mkz":"33465015","name":"Gorinsee","lat":52.69111,"lon":13.47585,"msid":12135},{"mkz":"33465503","name":"Bergfelde, Lichtung","lat":52.68103,"lon":13.33746,"msid":14984},{"mkz":"33465504","name":"Schildow OP","lat":52.63992,"lon":13.37947,"msid":14275},{"mkz":"33465505","name":"Schildow MP","lat":52.63992,"lon":13.37949,"msid":14276},{"mkz":"33465506","name":"Schildow UP","lat":52.63992,"lon":13.37949,"msid":14277},{"mkz":"33465509","name":"Summt, Friedhof","lat":52.68884,"lon":13.37253,"msid":15287},{"mkz":"33465511","name":"Mühlenbeck","lat":52.66536,"lon":13.37798,"msid":15288},{"mkz":"33465515","name":"Schönwalde, Friedhofsweg","lat":52.68025,"lon":13.44297,"msid":15289},{"mkz":"33465517","name":"Schönerlinde","lat":52.65476,"lon":13.44609,"msid":15290},{"mkz":"33470881","name":"Bernau, Stadtpark","lat":52.67797,"lon":13.58388,"msid":9580},{"mkz":"33470908","name":"Schönow","lat":52.67431,"lon":13.53218,"msid":16393},{"mkz":"33470916","name":"Zepernick","lat":52.65415,"lon":13.5429,"msid":10654},{"mkz":"33470920","name":"Zepernick","lat":52.64734,"lon":13.51987,"msid":10952},{"mkz":"33470959","name":"Röntgental","lat":52.64848,"lon":13.5327,"msid":10867},{"mkz":"33470960","name":"Bernau/Lindow","lat":52.6646,"lon":13.57939,"msid":11100},{"mkz":"33471550","name":"Lindenberg","lat":52.60272,"lon":13.52531,"msid":9482},{"mkz":"33475010","name":"Zepernick","lat":52.65995,"lon":13.53034,"msid":10853},{"mkz":"33480246","name":"Werneuchen","lat":52.6334,"lon":13.73867,"msid":11054},{"mkz":"33481557","name":"Wegendorf","lat":52.59866,"lon":13.76518,"msid":10868},{"mkz":"33482200","name":"Beiersdorf","lat":52.6901,"lon":13.7799,"msid":8632},{"mkz":"33485041","name":"Tiefensee","lat":52.66997,"lon":13.79493,"msid":11677},{"mkz":"33491520","name":"Gielsdorf OP","lat":52.60141,"lon":13.87354,"msid":11678},{"mkz":"33491521","name":"Gielsdorf UP","lat":52.60141,"lon":13.87354,"msid":9728},{"mkz":"33502240","name":"Kunersdorf","lat":52.67713,"lon":14.15665,"msid":8638},{"mkz":"33502241","name":"Reichenow","lat":52.65097,"lon":14.06591,"msid":8647},{"mkz":"33502242","name":"Batzlow, Bushaltestelle","lat":52.63213,"lon":14.11782,"msid":9234},{"mkz":"33502243","name":"Kunersdorf","lat":52.66807,"lon":14.1538,"msid":9235},{"mkz":"33502244","name":"Ringenwalde","lat":52.61571,"lon":14.13896,"msid":9236},{"mkz":"33502245","name":"Reichenberg, HyBtl 15/71 OP","lat":52.61362,"lon":14.10693,"msid":8582},{"mkz":"33502248","name":"Batzlow-MP","lat":52.65439,"lon":14.11021,"msid":8560},{"mkz":"33502249","name":"Batzlow-UP","lat":52.65439,"lon":14.11021,"msid":8552},{"mkz":"33502252","name":"Batzlow-UP","lat":52.63675,"lon":14.15985,"msid":8556},{"mkz":"33502260","name":"Grunow, Ernsthof","lat":52.60162,"lon":14.00272,"msid":9681},{"mkz":"33510961","name":"Gottesgabe-Neufriedland, KSP Nr. 40","lat":52.63784,"lon":14.19394,"msid":9212},{"mkz":"33512271","name":"Kiehnwerder, KSP Nr. 50","lat":52.62061,"lon":14.30514,"msid":8492},{"mkz":"33512272","name":"Altbarnim","lat":52.6783,"lon":14.2873,"msid":9149},{"mkz":"33512273","name":"Neufriedland, Alte Mühle, KSP Nr. 47","lat":52.65093,"lon":14.2429,"msid":9150},{"mkz":"33512275","name":"Alttrebbiner Loose, KSP Nr. 38","lat":52.69573,"lon":14.23478,"msid":9152},{"mkz":"33512278","name":"Metzdorf","lat":52.66088,"lon":14.17367,"msid":9213},{"mkz":"33512279","name":"Altbarnim","lat":52.684,"lon":14.26988,"msid":9214},{"mkz":"33512281","name":"Kiehnwerder-Horst","lat":52.64097,"lon":14.28822,"msid":8917},{"mkz":"33512283","name":"Bärwinkel","lat":52.60953,"lon":14.26479,"msid":8919},{"mkz":"33512285","name":"Kienwerder","lat":52.63398,"lon":14.2986,"msid":8921},{"mkz":"33512288","name":"Altfriedland","lat":52.6073,"lon":14.183,"msid":8541},{"mkz":"33512289","name":"Gottesgabe","lat":52.6379,"lon":14.1772,"msid":8542},{"mkz":"33512290","name":"Neu-Trebbin,Schachtbr.","lat":52.66976,"lon":14.22783,"msid":8543},{"mkz":"33512291","name":"Kunersdorf-Dammkrug, KSP Nr. 29","lat":52.67692,"lon":14.1763,"msid":8916},{"mkz":"33512293","name":"Neuhardenberg, KSP Nr. 48","lat":52.60295,"lon":14.22005,"msid":8928},{"mkz":"33520964","name":"Großneuendorf","lat":52.69686,"lon":14.37919,"msid":9102},{"mkz":"33520965","name":"Kienitz","lat":52.67096,"lon":14.44133,"msid":8922},{"mkz":"33520966","name":"Kienitz","lat":52.66716,"lon":14.42691,"msid":9155},{"mkz":"33520968","name":"Letschin, KSP Nr. 52","lat":52.6334,"lon":14.36713,"msid":8915},{"mkz":"33520970","name":"Letschin, Straße nach Gusow, KSP Nr. 61","lat":52.6073,"lon":14.34317,"msid":14848},{"mkz":"33522320","name":"Letschin, Richtung Kienitz, KSP Nr. 45","lat":52.654,"lon":14.36767,"msid":9109},{"mkz":"33522321","name":"Letschin","lat":52.64509,"lon":14.39817,"msid":9231},{"mkz":"33522324","name":"Letschin, Wriezener Straße","lat":52.64558,"lon":14.35304,"msid":9142},{"mkz":"33522325","name":"Voßberg, KSP Nr. 53","lat":52.62743,"lon":14.38988,"msid":9104},{"mkz":"33522326","name":"Basta","lat":52.61164,"lon":14.40791,"msid":9105},{"mkz":"33522327","name":"Gusower Loose, KSP Nr. 60","lat":52.60073,"lon":14.38772,"msid":9106},{"mkz":"33522329","name":"Zechin","lat":52.61092,"lon":14.4686,"msid":9103},{"mkz":"33522332","name":"Sydowswiese, Deich","lat":52.65134,"lon":14.46504,"msid":8926},{"mkz":"33522333","name":"Sophienthal, Deich","lat":52.65574,"lon":14.44591,"msid":9107},{"mkz":"33522336","name":"Solikante","lat":52.67443,"lon":14.35563,"msid":10070},{"mkz":"33522337","name":"Neuendorfer Loose","lat":52.68043,"lon":14.33398,"msid":9224},{"mkz":"33522339","name":"Rehfeld","lat":52.64261,"lon":14.42632,"msid":9226},{"mkz":"33522341","name":"Sophienthal","lat":52.63825,"lon":14.47272,"msid":10075},{"mkz":"33522342","name":"Letschin, Louisenhof,  KSP 51","lat":52.63412,"lon":14.33495,"msid":10034},{"mkz":"33522344","name":"Letschin, Friedrichsaue","lat":52.59898,"lon":14.46454,"msid":10036},{"mkz":"33522347","name":"Sophienthal-Eichenhof","lat":52.63923,"lon":14.45976,"msid":9216},{"mkz":"33532380","name":"Genschmar, Baracke A&V, KSP Nr. 56","lat":52.6143,"lon":14.51615,"msid":9218},{"mkz":"33532381","name":"Wilhelminenhof","lat":52.60276,"lon":14.50631,"msid":10057},{"mkz":"33532383","name":"Genschmarer Loose, Deich","lat":52.61931,"lon":14.54568,"msid":10068},{"mkz":"33532384","name":"Altbleyen","lat":52.60896,"lon":14.57974,"msid":10007},{"mkz":"33532388","name":"Genschmar","lat":52.61824,"lon":14.52656,"msid":10053},{"mkz":"33532390","name":"Genschmar","lat":52.61081,"lon":14.55107,"msid":10063},{"mkz":"34392100","name":"Kleinwudicke","lat":52.59406,"lon":12.20817,"msid":15420},{"mkz":"34392110","name":"Buckow, am Cossathen-Berg","lat":52.57391,"lon":12.26486,"msid":15167},{"mkz":"34392120","name":"Vieritz, ca. 1 km nördl., OP","lat":52.53753,"lon":12.24919,"msid":15146},{"mkz":"34392121","name":"Vieritz, ca. 1 km nördl., MP","lat":52.53753,"lon":12.24919,"msid":15147},{"mkz":"34392122","name":"Vieritz, ca. 1 km nördl., UP","lat":52.53753,"lon":12.24919,"msid":15208},{"mkz":"34396780","name":"Premnitz, Bützer Feld","lat":52.53641,"lon":12.32432,"msid":14994},{"mkz":"34402015","name":"Bamme Südwest","lat":52.57882,"lon":12.41168,"msid":14707},{"mkz":"34402025","name":"Bamme","lat":52.57991,"lon":12.43543,"msid":15906},{"mkz":"34402050","name":"Rathenow Wald","lat":52.58351,"lon":12.36304,"msid":14332},{"mkz":"34402790","name":"Pritzerbe, Birkenwäldchen","lat":52.5073,"lon":12.46144,"msid":14287},{"mkz":"34407725","name":"Gräningen Nord","lat":52.58023,"lon":12.47561,"msid":13426},{"mkz":"34416018","name":"Barnewitz, Ortsteil Linde","lat":52.54578,"lon":12.66342,"msid":14574},{"mkz":"34416120","name":"Marzahne Nord","lat":52.5308,"lon":12.53499,"msid":14503},{"mkz":"34416123","name":"Gortz-Barnewitz","lat":52.52382,"lon":12.6392,"msid":14348},{"mkz":"34416125","name":"Gortz, ca. 1 km nordöstl., UP","lat":52.52166,"lon":12.65555,"msid":14343},{"mkz":"34417503","name":"Buschow, Bahnhof","lat":52.59163,"lon":12.63127,"msid":14879},{"mkz":"34417705","name":"Garlitz, Mittelheide","lat":52.55946,"lon":12.53505,"msid":14301},{"mkz":"34417713","name":"Barnewitz, ca.2,5 km südwestl.","lat":52.5442,"lon":12.59614,"msid":14304},{"mkz":"34426005","name":"Groß Behnitz, Sandkrug","lat":52.58546,"lon":12.7458,"msid":14241},{"mkz":"34426013","name":"Klein Behnitz Süd OP","lat":52.5597,"lon":12.70215,"msid":14317},{"mkz":"34426014","name":"Klein Behnitz Süd UP","lat":52.5597,"lon":12.70215,"msid":14260},{"mkz":"34426015","name":"Gohlitz-Quermathen","lat":52.55558,"lon":12.76644,"msid":14510},{"mkz":"34426022","name":"Wachow Nordwest","lat":52.54499,"lon":12.73638,"msid":14315},{"mkz":"34426024","name":"Wachow,ca. 1 km südöstl.Wachow","lat":52.5248,"lon":12.7745,"msid":14316},{"mkz":"34426025","name":"Päwesin, Str. Päwesin - Wachow","lat":52.51689,"lon":12.73798,"msid":14259},{"mkz":"34426100","name":"Wachow, Dorfstellen, OP","lat":52.52695,"lon":12.72782,"msid":14256},{"mkz":"34426101","name":"Wachow, Dorfstellen, UP","lat":52.52695,"lon":12.72782,"msid":14257},{"mkz":"34426110","name":"Bagow, Bollmannsruh","lat":52.50704,"lon":12.68008,"msid":14258},{"mkz":"34427480","name":"Groß Behnitz, Ribbecker Heide OP","lat":52.59039,"lon":12.70711,"msid":14168},{"mkz":"34427481","name":"Groß Behnitz, Ribbecker Heide UP","lat":52.59039,"lon":12.70711,"msid":14169},{"mkz":"34432508","name":"Hoppenrade Ausbau, Mühlenberg","lat":52.52347,"lon":12.93456,"msid":14238},{"mkz":"34437055","name":"Brieselang, Daimler Str.","lat":52.5807,"lon":12.98288,"msid":14511},{"mkz":"34437100","name":"Markee-Neuhof","lat":52.57232,"lon":12.84245,"msid":14079},{"mkz":"34442481","name":"Falkensee, Mannheimer Straße","lat":52.58245,"lon":13.07258,"msid":14636},{"mkz":"34447010","name":"Falkensee, nahe Rote Villa","lat":52.57698,"lon":13.10585,"msid":14209},{"mkz":"34447012","name":"Falkensee-Finkenkrug, Kirche","lat":52.56319,"lon":13.04242,"msid":14254},{"mkz":"34447013","name":"Dallgow, nördlich der Bahngleise","lat":52.54287,"lon":13.08842,"msid":14255},{"mkz":"34447060","name":"Falkens./Fink.Wismarer Str. OP, UF","lat":52.56366,"lon":13.01127,"msid":14203},{"mkz":"34447061","name":"Falkens./Fink.Wismarer Str.MP1, UF","lat":52.56366,"lon":13.01127,"msid":14204},{"mkz":"34447063","name":"Falkens./ Fink.Wismarer Str. UP, UF","lat":52.56366,"lon":13.01127,"msid":13284},{"mkz":"34447100","name":"Falkensee, Herlitzweg OP","lat":52.55257,"lon":13.11855,"msid":15226},{"mkz":"34471523","name":"Neulindenberg","lat":52.59829,"lon":13.55477,"msid":11237},{"mkz":"34471545","name":"Eiche, Dorfstraße","lat":52.56278,"lon":13.58972,"msid":14886},{"mkz":"34471563","name":"Ahrensfelde OP","lat":52.5842,"lon":13.56555,"msid":11918},{"mkz":"34471564","name":"Ahrensfelde UP","lat":52.5842,"lon":13.56555,"msid":10869},{"mkz":"34471567","name":"Blumberg","lat":52.59492,"lon":13.63217,"msid":10711},{"mkz":"34480880","name":"Bollensdorf","lat":52.50172,"lon":13.7029,"msid":11401},{"mkz":"34481534","name":"Bruchmühle OP","lat":52.55496,"lon":13.77104,"msid":11911},{"mkz":"34481535","name":"Bruchmühle MP","lat":52.55496,"lon":13.77104,"msid":11912},{"mkz":"34481536","name":"Bruchmühle UP","lat":52.55496,"lon":13.77104,"msid":11913},{"mkz":"34481540","name":"Fredersdorf, Friedrich-Engels-Straße","lat":52.53764,"lon":13.76095,"msid":15501},{"mkz":"34485057","name":"Eggersdorf, Wald","lat":52.54018,"lon":13.81379,"msid":12064},{"mkz":"34491539","name":"Zinndorf","lat":52.50646,"lon":13.92921,"msid":15478},{"mkz":"34491542","name":"Rehfelde OP","lat":52.54327,"lon":13.9156,"msid":10450},{"mkz":"34491543","name":"Rehfelde UP","lat":52.54327,"lon":13.9156,"msid":11231},{"mkz":"34491544","name":"Strausberg OP","lat":52.543,"lon":13.86551,"msid":10451},{"mkz":"34491547","name":"Strausberg UP","lat":52.53602,"lon":13.85906,"msid":17090},{"mkz":"34491548","name":"Strausberg, Herrensee","lat":52.55322,"lon":13.87958,"msid":17276},{"mkz":"34491549","name":"Strausberg, Torfhaus","lat":52.51874,"lon":13.84248,"msid":17277},{"mkz":"34495032","name":"Strausberg Treuenhof","lat":52.57005,"lon":13.92745,"msid":11491},{"mkz":"34495033","name":"Strausberg West","lat":52.56209,"lon":13.84282,"msid":15459},{"mkz":"34500877","name":"Buckow, Br. Bahnhof","lat":52.56095,"lon":14.07564,"msid":10065},{"mkz":"34500878","name":"Buckow, vor Bahnhof","lat":52.56073,"lon":14.0753,"msid":8474},{"mkz":"34502401","name":"Müncheberg, Bergmannstraße","lat":52.50329,"lon":14.15176,"msid":10024},{"mkz":"34502410","name":"Pritzhagen","lat":52.58912,"lon":14.09862,"msid":10023},{"mkz":"34502412","name":"Müncheberg,Gelände LIW II","lat":52.50195,"lon":14.1625,"msid":10003},{"mkz":"34502413","name":"Münchehofe, Müncheberg","lat":52.56179,"lon":14.14469,"msid":10004},{"mkz":"34502540","name":"Müncheberg-Heilstätte","lat":52.49866,"lon":14.0958,"msid":10005},{"mkz":"34505031","name":"Waldsieversdorf","lat":52.54377,"lon":14.05485,"msid":12091},{"mkz":"34510971","name":"Platkow","lat":52.58395,"lon":14.3227,"msid":8740},{"mkz":"34512420","name":"Neuhardenberg, Richtung Wulkow","lat":52.58932,"lon":14.24158,"msid":8741},{"mkz":"34512423","name":"Neuhardenberg, Graben an B 167","lat":52.59237,"lon":14.26069,"msid":8883},{"mkz":"34512425","name":"Platkow-Vogelsang","lat":52.5685,"lon":14.30741,"msid":8880},{"mkz":"34512426","name":"Neuhardenberg, Feld","lat":52.58398,"lon":14.27767,"msid":8881},{"mkz":"34512427","name":"Platkow-Neuhof","lat":52.59573,"lon":14.31021,"msid":8882},{"mkz":"34512428","name":"Hermersdorf OP","lat":52.56833,"lon":14.20016,"msid":9822},{"mkz":"34512429","name":"Hermersdorf UP","lat":52.56833,"lon":14.20016,"msid":9823},{"mkz":"34515030","name":"Worin OP","lat":52.52495,"lon":14.2624,"msid":9682},{"mkz":"34515031","name":"Worin UP","lat":52.52497,"lon":14.26235,"msid":9239},{"mkz":"34522430","name":"Gusow, Gärtnerei","lat":52.56573,"lon":14.35307,"msid":17106},{"mkz":"34522455","name":"Alt Tucheband, Seelower Straße, KSP 70","lat":52.54191,"lon":14.46458,"msid":10204},{"mkz":"34522457","name":"Seelow, Kläranlage","lat":52.54283,"lon":14.39505,"msid":9145},{"mkz":"34522459","name":"Golzow, B 7, Giftschuppen","lat":52.57679,"lon":14.49358,"msid":9146},{"mkz":"34522461","name":"Sachsendorf, KSP Nr. 71","lat":52.51149,"lon":14.48523,"msid":9091},{"mkz":"34522464","name":"Alt-Langsow","lat":52.57555,"lon":14.41562,"msid":9094},{"mkz":"34522477","name":"Seelow, Friedhof","lat":52.53154,"lon":14.37237,"msid":9086},{"mkz":"34522486","name":"Ludwigslust OP","lat":52.5176,"lon":14.41744,"msid":10069},{"mkz":"34522487","name":"Ludwigslust MP","lat":52.5176,"lon":14.41744,"msid":9223},{"mkz":"34522488","name":"Ludwigslust UP","lat":52.5176,"lon":14.41744,"msid":9096},{"mkz":"34522490","name":"Hackenow","lat":52.5257,"lon":14.46502,"msid":9098},{"mkz":"34522492","name":"Seelow,Tankstelle","lat":52.53522,"lon":14.38961,"msid":10076},{"mkz":"34522495","name":"Gusow-OP,HyGsow 14/79 OP","lat":52.56064,"lon":14.34963,"msid":10079},{"mkz":"34522496","name":"Gusow-UP,HyGsow 14/79 UP","lat":52.56064,"lon":14.34963,"msid":10071},{"mkz":"34522497","name":"Golzow,Feuerwehrhaus","lat":52.57379,"lon":14.49213,"msid":10072},{"mkz":"34522498","name":"Gusow OP, KSP 59","lat":52.58414,"lon":14.3868,"msid":10073},{"mkz":"34532500","name":"Reitwein","lat":52.50768,"lon":14.57303,"msid":9014},{"mkz":"34532501","name":"Hathenow","lat":52.50525,"lon":14.5375,"msid":9015},{"mkz":"34532503","name":"Golzow, Abzweig Alttucheband","lat":52.571,"lon":14.50373,"msid":10029},{"mkz":"34532504","name":"Gorgast","lat":52.57348,"lon":14.5419,"msid":10019},{"mkz":"34532507","name":"Rathstock, KSP Nr. 72","lat":52.5227,"lon":14.54013,"msid":13939},{"mkz":"34532509","name":"Reitwein(Deich)","lat":52.51266,"lon":14.5981,"msid":10002},{"mkz":"34532511","name":"Reitwein","lat":52.52679,"lon":14.58875,"msid":8749},{"mkz":"34532512","name":"Herzershof, KSP Nr. 83","lat":52.54265,"lon":14.5594,"msid":8750},{"mkz":"34532514","name":"Alt-Bleyen, KSP Nr. 67","lat":52.58189,"lon":14.57649,"msid":14847},{"mkz":"34532515","name":"Neu-Bleyen","lat":52.59806,"lon":14.5909,"msid":10006},{"mkz":"34532517","name":"Reitwein(Deich)","lat":52.50127,"lon":14.6102,"msid":9018},{"mkz":"34532521","name":"Reitwein, Triftweg","lat":52.5039,"lon":14.58308,"msid":8909},{"mkz":"34532523","name":"Golzow,Heimstättensiedlung","lat":52.56335,"lon":14.5107,"msid":8900},{"mkz":"34532526","name":"Küstrin-Kietz, Salz","lat":52.57059,"lon":14.61997,"msid":10217},{"mkz":"35396712","name":"Bensdorf-Vehlen, OP","lat":52.44535,"lon":12.30845,"msid":13530},{"mkz":"35396713","name":"Bensdorf-Vehlen, UP","lat":52.44535,"lon":12.30845,"msid":13529},{"mkz":"35405930","name":"Plaue, Ortsteil Charlottenhof","lat":52.41755,"lon":12.40355,"msid":13647},{"mkz":"35405945","name":"Woltersdorf, am Kanal","lat":52.40107,"lon":12.37201,"msid":14985},{"mkz":"35406210","name":"Brandenburg, am Gördensee","lat":52.4368,"lon":12.48383,"msid":12426},{"mkz":"35406370","name":"Brandenburg, Plauerhof","lat":52.41461,"lon":12.44239,"msid":12414},{"mkz":"35406373","name":"Möthlitz, Neu Plauer Forst, OP","lat":52.45775,"lon":12.41022,"msid":12409},{"mkz":"35406375","name":"Möthlitz, Neu Plauer Forst, MP2","lat":52.45775,"lon":12.41022,"msid":12392},{"mkz":"35406376","name":"Möthlitz, Neu Plauer Forst, UP","lat":52.45775,"lon":12.41022,"msid":12405},{"mkz":"35406384","name":"Knoblauch, ca. 1 km südl., UP","lat":52.43921,"lon":12.35122,"msid":12407},{"mkz":"35406451","name":"Kützkow","lat":52.49108,"lon":12.43361,"msid":13645},{"mkz":"35406530","name":"Nitzahn,ca.0,5km südl.Ch.-Haus","lat":52.45834,"lon":12.36221,"msid":12389},{"mkz":"35412785","name":"Klein Kreutz, Alte Weinberge","lat":52.44351,"lon":12.63923,"msid":13656},{"mkz":"35416130","name":"Lünow OP","lat":52.47611,"lon":12.64906,"msid":13602},{"mkz":"35416131","name":"Lünow MP","lat":52.47609,"lon":12.64908,"msid":13603},{"mkz":"35416160","name":"Marzahne, Marzahner Fenn","lat":52.49789,"lon":12.53798,"msid":13605},{"mkz":"35416166","name":"Weseram","lat":52.46608,"lon":12.65154,"msid":13556},{"mkz":"35416168","name":"Klein Kreutz","lat":52.45425,"lon":12.6192,"msid":13512},{"mkz":"35416176","name":"Brandenburg, Fritze-Bollmann-Weg OP","lat":52.44407,"lon":12.55812,"msid":13555},{"mkz":"35416180","name":"Brielow, Abzweig nach Radewege","lat":52.47902,"lon":12.53923,"msid":13906},{"mkz":"35416185","name":"Brandenburg, Str. nach Mötzow","lat":52.44133,"lon":12.58369,"msid":13508},{"mkz":"35422520","name":"Deetz-Schmergow OP","lat":52.4425,"lon":12.78938,"msid":14221},{"mkz":"35422521","name":"Deetz-Schmergow UP","lat":52.4425,"lon":12.78938,"msid":14263},{"mkz":"35422710","name":"Groß Kreutz-Jeserig","lat":52.40579,"lon":12.75037,"msid":14265},{"mkz":"35426050","name":"Zachow Nord","lat":52.48834,"lon":12.78113,"msid":14775},{"mkz":"35426140","name":"Roskow-Päwesin","lat":52.48627,"lon":12.69875,"msid":14218},{"mkz":"35432345","name":"Werder,gegenü. Gelände -Miele-","lat":52.4038,"lon":12.90537,"msid":13608},{"mkz":"35432347","name":"Kemnitz, Str.Werder-Phöben,AB","lat":52.41383,"lon":12.89864,"msid":13571},{"mkz":"35432400","name":"Kemnitz, am Ort","lat":52.40647,"lon":12.87249,"msid":13572},{"mkz":"35432435","name":"Schmergow, Schmergower Bruch","lat":52.4618,"lon":12.83225,"msid":13573},{"mkz":"35432500","name":"Töplitz, Kanalweg","lat":52.4333,"lon":12.90874,"msid":15058},{"mkz":"35432575","name":"Falkenrehde, Gemeindehaus","lat":52.49531,"lon":12.92327,"msid":15430},{"mkz":"35432590","name":"Marquardt, an der AB Bln.-Ring","lat":52.47344,"lon":12.95322,"msid":13575},{"mkz":"35432600","name":"Golm Nord","lat":52.41763,"lon":12.96813,"msid":13766},{"mkz":"35442150","name":"Groß Glienicke, Am Fenn, OP","lat":52.46547,"lon":13.09886,"msid":13720},{"mkz":"35442151","name":"Groß Glienicke, Am Fenn, UP","lat":52.46547,"lon":13.09886,"msid":13722},{"mkz":"35442200","name":"Potsdam, Nauener Tor","lat":52.40378,"lon":13.05904,"msid":13412},{"mkz":"35442203","name":"Potsdam, Charlottenstr. 46","lat":52.39982,"lon":13.05984,"msid":13383},{"mkz":"35442240","name":"Potsdam, Große Weinmeisterstraße UF","lat":52.41619,"lon":13.06366,"msid":13344},{"mkz":"35442250","name":"Bornstedt, Eichenallee, OP","lat":52.40897,"lon":13.02771,"msid":13551},{"mkz":"35442251","name":"Bornstedt, Eichenallee, UP","lat":52.40897,"lon":13.02771,"msid":13552},{"mkz":"35442253","name":"Potsdam, Voltaireweg","lat":52.40484,"lon":13.04174,"msid":13505},{"mkz":"35442254","name":"Potsdam, Drachenhaus","lat":52.40495,"lon":13.02178,"msid":13506},{"mkz":"35442256","name":"Potsdam, Orangerie","lat":52.40684,"lon":13.02884,"msid":13550},{"mkz":"35442309","name":"Bornim, Königsdamm, OP","lat":52.4416,"lon":13.02342,"msid":13188},{"mkz":"35442310","name":"Bornim, Königsdamm, UP","lat":52.4416,"lon":13.02342,"msid":13189},{"mkz":"35442314","name":"Bornim, Lerchenst./Kreuz.Schneiderweg, OP","lat":52.43499,"lon":13.01601,"msid":14918},{"mkz":"35442315","name":"Bornim, Lerchenst./Kreuz.Schneiderweg, UP","lat":52.43499,"lon":13.01601,"msid":14917},{"mkz":"35459841","name":"Teltow, Lichterf.A./ Hauffstr.UP, UF","lat":52.40807,"lon":13.2876,"msid":13219},{"mkz":"35459842","name":"Teltow,Lichterf.A./Hauffstr.MP, UF","lat":52.40807,"lon":13.2876,"msid":13220},{"mkz":"35459843","name":"Teltow,Lichterf.A./Hauffstr,OP, UF","lat":52.40807,"lon":13.2876,"msid":13221},{"mkz":"35459952","name":"Kleinmachnow, Zehlendorfer Damm","lat":52.41422,"lon":13.24257,"msid":13878},{"mkz":"35459953","name":"Kleinmachnow, Stammbahn","lat":52.42016,"lon":13.22408,"msid":13879},{"mkz":"35459954","name":"Kleinmachnow, Stahnsdorfer Damm","lat":52.40488,"lon":13.19853,"msid":13218},{"mkz":"35480280","name":"Erkner","lat":52.41545,"lon":13.75728,"msid":11055},{"mkz":"35480931","name":"Woltersdorf","lat":52.45656,"lon":13.74041,"msid":15453},{"mkz":"35480935","name":"Tasdorf","lat":52.496,"lon":13.78684,"msid":14904},{"mkz":"35480939","name":"Schöneiche","lat":52.47312,"lon":13.69868,"msid":10630},{"mkz":"35481611","name":"Erkner-Karutzhöhe","lat":52.40376,"lon":13.76234,"msid":11073},{"mkz":"35481952","name":"Schöneiche","lat":52.48642,"lon":13.71151,"msid":11074},{"mkz":"35485390","name":"Grünheide","lat":52.40764,"lon":13.81182,"msid":12200},{"mkz":"35485391","name":"Erkner","lat":52.42158,"lon":13.77787,"msid":10935},{"mkz":"35490240","name":"Hangelsberg, Trebuser Graben","lat":52.40061,"lon":13.92111,"msid":14903},{"mkz":"35490289","name":"Klein Wall","lat":52.41716,"lon":13.86905,"msid":10714},{"mkz":"35501620","name":"Schönfelde OP","lat":52.46234,"lon":14.05872,"msid":12050},{"mkz":"35501621","name":"Schönfelde UP","lat":52.4623,"lon":14.05874,"msid":12051},{"mkz":"35501662","name":"Jänickendorf","lat":52.43082,"lon":14.01881,"msid":12094},{"mkz":"35501665","name":"Tempelberg","lat":52.46211,"lon":14.14646,"msid":12095},{"mkz":"35502541","name":"Eggersdorf bei Müncheberg","lat":52.47634,"lon":14.10474,"msid":12097},{"mkz":"35512550","name":"Falkenhagen","lat":52.42017,"lon":14.31497,"msid":9135},{"mkz":"35522580","name":"Wulkow","lat":52.40302,"lon":14.47459,"msid":9138},{"mkz":"35522582","name":"Döbberin","lat":52.44268,"lon":14.37141,"msid":9253},{"mkz":"35522583","name":"Niederjesar","lat":52.44203,"lon":14.44939,"msid":9254},{"mkz":"35522584","name":"Lietzen","lat":52.48232,"lon":14.34338,"msid":9255},{"mkz":"35522585","name":"Werder","lat":52.49231,"lon":14.49008,"msid":9256},{"mkz":"35522592","name":"Alt Mahlisch OP","lat":52.46474,"lon":14.42269,"msid":9261},{"mkz":"35522593","name":"Alt Mahlisch UP","lat":52.46474,"lon":14.42269,"msid":9262},{"mkz":"35522594","name":"Alt Zeschdorf","lat":52.42455,"lon":14.45271,"msid":8732},{"mkz":"35532622","name":"Reitwein, Dammeisterei","lat":52.49784,"lon":14.62658,"msid":9259},{"mkz":"35532623","name":"Reitwein","lat":52.47677,"lon":14.60254,"msid":9260},{"mkz":"35532624","name":"Reitwein","lat":52.48092,"lon":14.57751,"msid":9303},{"mkz":"35532626","name":"Klessin","lat":52.45645,"lon":14.565,"msid":9310},{"mkz":"35532628","name":"Lebus (Deich)","lat":52.44133,"lon":14.55174,"msid":9248},{"mkz":"35532630","name":"Reitwein, Hathenower Wiesen","lat":52.4885,"lon":14.61638,"msid":9306},{"mkz":"35532632","name":"Lebus (Deich)","lat":52.4575,"lon":14.5897,"msid":9308},{"mkz":"35532634","name":"Reitwein, südlich Dammeisterei","lat":52.49426,"lon":14.62954,"msid":9187},{"mkz":"35532636","name":"Reitwein, Wuhdener Weg","lat":52.49288,"lon":14.58093,"msid":9189},{"mkz":"35532638","name":"Wuhden, Wuhdener Loose","lat":52.4662,"lon":14.56742,"msid":9191},{"mkz":"35535245","name":"Lebus, Deich, HyLbu36/81","lat":52.46194,"lon":14.59543,"msid":9118},{"mkz":"36404810","name":"Viesener Mühle","lat":52.31258,"lon":12.39588,"msid":11273},{"mkz":"36405943","name":"Woltersdorf, Str. nach Wusterwitz","lat":52.39796,"lon":12.37267,"msid":14986},{"mkz":"36405960","name":"Warchau, ca. 2 km südöstl., OP","lat":52.34905,"lon":12.38305,"msid":13994},{"mkz":"36405962","name":"Warchau, ca. 2 km südöstl., UP","lat":52.34905,"lon":12.38305,"msid":14777},{"mkz":"36405972","name":"Wusterwitz, Neubauten","lat":52.38274,"lon":12.37581,"msid":14987},{"mkz":"36406300","name":"Kirchmöser, Zolchberge, OP","lat":52.3648,"lon":12.42259,"msid":11256},{"mkz":"36406301","name":"Kirchmöser, Zolchberge, MP","lat":52.3648,"lon":12.42259,"msid":11257},{"mkz":"36412040","name":"Brandenburg-Neuendorf","lat":52.39411,"lon":12.50634,"msid":13404},{"mkz":"36412060","name":"Schmerzke, Schmerzker Heide, OP","lat":52.37567,"lon":12.57644,"msid":13532},{"mkz":"36412061","name":"Schmerzke, Schmerzker Heide, MP","lat":52.37567,"lon":12.57644,"msid":13533},{"mkz":"36412062","name":"Schmerzke, Schmerzker Heide, UP","lat":52.37567,"lon":12.57644,"msid":13531},{"mkz":"36412070","name":"Brandenburg, Wilhelmsdorfer Landstraße UF","lat":52.39551,"lon":12.54214,"msid":14049},{"mkz":"36412784","name":"Rietz Nord","lat":52.38342,"lon":12.64392,"msid":13400},{"mkz":"36412961","name":"Prützke Ost OP","lat":52.34471,"lon":12.63628,"msid":13402},{"mkz":"36412962","name":"Prützke Ost UP","lat":52.34471,"lon":12.63628,"msid":13403},{"mkz":"36413850","name":"Krahne Ost OP","lat":52.3203,"lon":12.59091,"msid":13490},{"mkz":"36413851","name":"Krahne Ost UP","lat":52.3203,"lon":12.59091,"msid":13491},{"mkz":"36414990","name":"Brandenburg-Wilhelmsdorf","lat":52.37161,"lon":12.50134,"msid":14988},{"mkz":"36422930","name":"Lehnin, ca. 400 m südl. AB","lat":52.33692,"lon":12.75581,"msid":13295},{"mkz":"36422935","name":"Lehnin, Abzweig Str. nach Nahmitz/Kreisverkehr","lat":52.32938,"lon":12.72978,"msid":13291},{"mkz":"36422940","name":"Göhlsdorf-Lehnin","lat":52.35054,"lon":12.77952,"msid":13294},{"mkz":"36422942","name":"Netzen, Sportzentrum","lat":52.34524,"lon":12.68704,"msid":15010},{"mkz":"36422952","name":"Trechwitz Ost","lat":52.36496,"lon":12.72603,"msid":13278},{"mkz":"36422957","name":"Derwitz Ost","lat":52.39763,"lon":12.83115,"msid":14047},{"mkz":"36432263","name":"Wildpark-West, Str. -Am Ufer-, OP","lat":52.39172,"lon":12.94576,"msid":13823},{"mkz":"36432264","name":"Wildpark-West, Str. -Am Ufer-, UP","lat":52.39172,"lon":12.94576,"msid":13818},{"mkz":"36432266","name":"Glindow, Glindower Eck","lat":52.37024,"lon":12.90814,"msid":13820},{"mkz":"36432280","name":"Geltow, Am Pappeltor, OP","lat":52.36581,"lon":12.96589,"msid":14771},{"mkz":"36432281","name":"Geltow, Am Pappeltor, UP","lat":52.36581,"lon":12.96589,"msid":15053},{"mkz":"36432300","name":"Werder, Plantagenplatz","lat":52.37733,"lon":12.93242,"msid":15059},{"mkz":"36432830","name":"Bliesendorf Süd","lat":52.31933,"lon":12.86006,"msid":14773},{"mkz":"36432850","name":"Plötzin, Glindower Weg","lat":52.36255,"lon":12.85462,"msid":13780},{"mkz":"36441820","name":"Potsdam, Nesselgrund, Eisenbahnbrücke, OP","lat":52.35467,"lon":13.04242,"msid":14792},{"mkz":"36441821","name":"Potsdam, Nesselgrund, Eisenbahnbrücke, MP","lat":52.35467,"lon":13.04242,"msid":14793},{"mkz":"36441822","name":"Potsdam, Nesselgrund, Eisenbahnbrücke, UP","lat":52.35467,"lon":13.04242,"msid":14794},{"mkz":"36441860","name":"Wilhelmshorst, westl. Hubertus-/Forstweg, OP","lat":52.33348,"lon":13.04652,"msid":14795},{"mkz":"36441861","name":"Wilhelmshorst, westl. Hubertus-/Forstweg, MP1","lat":52.33348,"lon":13.04652,"msid":14796},{"mkz":"36441862","name":"Wilhelmshorst, westl. Hubertus-/Forstweg, MP2","lat":52.33348,"lon":13.04652,"msid":14798},{"mkz":"36441863","name":"Wilhelmshorst, west. Hubertus-/ Forstweg, UP","lat":52.33348,"lon":13.04652,"msid":14797},{"mkz":"36441897","name":"Caputh, Sportpl. Michend. Ch., UF","lat":52.34539,"lon":13.00586,"msid":13088},{"mkz":"36441930","name":"Michendorf West OP","lat":52.31685,"lon":13.02265,"msid":13089},{"mkz":"36441931","name":"Michendorf West MP","lat":52.31685,"lon":13.02265,"msid":13886},{"mkz":"36441932","name":"Michendorf West UP","lat":52.31685,"lon":13.02265,"msid":13019},{"mkz":"36441935","name":"Saarmund, Str. nach Tremsdorf","lat":52.30196,"lon":13.11702,"msid":13741},{"mkz":"36441936","name":"Saarmund, Str. n. Langerwisch","lat":52.31694,"lon":13.11442,"msid":13742},{"mkz":"36441944","name":"Langerwisch, Umgehungsstraße, UF","lat":52.31488,"lon":13.04617,"msid":13017},{"mkz":"36441946","name":"Philippsthal,Str.Nudow-Drewitz","lat":52.34102,"lon":13.15879,"msid":13018},{"mkz":"36441950","name":"Bergholz-Rehbrücke, Am Rehgraben","lat":52.35022,"lon":13.09779,"msid":13706},{"mkz":"36441951","name":"Bergholz-Rehbrücke.,Weerthstr.,UF","lat":52.34423,"lon":13.10488,"msid":13735},{"mkz":"36441968","name":"Pdm.-Bbg.,ehem.AB Auff. R.Bln.","lat":52.38137,"lon":13.14913,"msid":13737},{"mkz":"36441970","name":"Potsdam, Str. Unter d. Eichen, OP","lat":52.37263,"lon":13.0956,"msid":13739},{"mkz":"36441971","name":"Potsdam, Str. Unter d. Eichen, MP","lat":52.37263,"lon":13.0956,"msid":13705},{"mkz":"36441972","name":"Potsdam, Str. Unter d. Eichen, UP","lat":52.37263,"lon":13.0956,"msid":12461},{"mkz":"36441976","name":"Potsdam, Neuendorf.-/Schnellstr","lat":52.37168,"lon":13.12862,"msid":13734},{"mkz":"36441980","name":"Wilhelmshorst, Michendorfer Platz","lat":52.32897,"lon":13.05653,"msid":15404},{"mkz":"36441981","name":"Pdm.-Bbg., Wohngebiet Drewitz","lat":52.36922,"lon":13.14688,"msid":12454},{"mkz":"36441987","name":"Pdm.-Bbg., Dianapark, OP","lat":52.3881,"lon":13.12272,"msid":12455},{"mkz":"36441988","name":"Pdm.-Bbg., Dianapark, UP","lat":52.3881,"lon":13.12272,"msid":12456},{"mkz":"36441989","name":"Potsdam, Goetheplatz UF","lat":52.39615,"lon":13.10258,"msid":12457},{"mkz":"36441990","name":"Pdm.-Bbg., nahe Oberlinhaus, UF","lat":52.39265,"lon":13.08758,"msid":12458},{"mkz":"36441991","name":"Potsdam, Zum Kahleberg 99","lat":52.36581,"lon":13.08412,"msid":12459},